[
    { "code": "ALG", "city": "Algiers", "country": "Algeria", "lat": 36.6910, "lng": 3.2154, "name": "Houari Boumediene Airport" },
    { "code": "LAD", "city": "Luanda", "country": "Angola", "lat": -8.8583, "lng": 13.2311, "name": "Quatro de Fevereiro Airport" },
    { "code": "COO", "city": "Cotonou", "country": "Benin", "lat": 6.3572, "lng": 2.3844, "name": "Cadjehoun Airport" },
    { "code": "GBE", "city": "Gaborone", "country": "Botswana", "lat": -24.5553, "lng": 25.9183, "name": "Sir Seretse Khama International Airport" },
    { "code": "OUA", "city": "Ouagadougou", "country": "Burkina Faso", "lat": 12.3533, "lng": -1.5125, "name": "Ouagadougou Airport" },
    { "code": "BJM", "city": "Bujumbura", "country": "Burundi", "lat": -3.3242, "lng": 29.3186, "name": "Bujumbura International Airport" },
    { "code": "RAI", "city": "Praia", "country": "Cape Verde", "lat": 14.9244, "lng": -23.4933, "name": "Nelson Mandela International Airport" },
    { "code": "DLA", "city": "Douala", "country": "Cameroon", "lat": 4.0061, "lng": 9.7194, "name": "Douala International Airport" },
    { "code": "BGF", "city": "Bangui", "country": "Central African Republic", "lat": 4.3983, "lng": 18.5189, "name": "Bangui M'Poko International Airport" },
    { "code": "NDJ", "city": "N'Djamena", "country": "Chad", "lat": 12.1336, "lng": 15.0342, "name": "N'Djamena International Airport" },
    { "code": "HAH", "city": "Moroni", "country": "Comoros", "lat": -11.5339, "lng": 43.2719, "name": "Prince Said Ibrahim International Airport" },
    { "code": "FIH", "city": "Kinshasa", "country": "DR Congo", "lat": -4.3858, "lng": 15.4447, "name": "N'djili Airport" },
    { "code": "BZV", "city": "Brazzaville", "country": "Congo", "lat": -4.2517, "lng": 15.2528, "name": "Maya-Maya Airport" },
    { "code": "ABJ", "city": "Abidjan", "country": "Cote d'Ivoire", "lat": 5.2614, "lng": -3.9264, "name": "Port Bouët Airport" },
    { "code": "JIB", "city": "Djibouti", "country": "Djibouti", "lat": 11.5472, "lng": 43.1594, "name": "Djibouti-Ambouli International Airport" },
    { "code": "CAI", "city": "Cairo", "country": "Egypt", "lat": 30.1219, "lng": 31.4056, "name": "Cairo International Airport" },
    { "code": "SSG", "city": "Malabo", "country": "Equatorial Guinea", "lat": 3.7553, "lng": 8.7086, "name": "Malabo International Airport" },
    { "code": "ASM", "city": "Asmara", "country": "Eritrea", "lat": 15.2919, "lng": 38.9108, "name": "Asmara International Airport" },
    { "code": "ADD", "city": "Addis Ababa", "country": "Ethiopia", "lat": 8.9779, "lng": 38.7993, "name": "Bole International Airport" },
    { "code": "LBV", "city": "Libreville", "country": "Gabon", "lat": 0.4583, "lng": 9.4122, "name": "Léon-Mba International Airport" },
    { "code": "BJL", "city": "Banjul", "country": "Gambia", "lat": 13.3381, "lng": -16.6522, "name": "Banjul International Airport" },
    { "code": "ACC", "city": "Accra", "country": "Ghana", "lat": 5.6052, "lng": -0.1667, "name": "Kotoka International Airport" },
    { "code": "CKY", "city": "Conakry", "country": "Guinea", "lat": 9.5769, "lng": -13.6119, "name": "Conakry International Airport" },
    { "code": "OXB", "city": "Bissau", "country": "Guinea-Bissau", "lat": 11.8947, "lng": -15.6536, "name": "Osvaldo Vieira International Airport" },
    { "code": "NBO", "city": "Nairobi", "country": "Kenya", "lat": -1.3192, "lng": 36.9278, "name": "Jomo Kenyatta International Airport" },
    { "code": "MSU", "city": "Maseru", "country": "Lesotho", "lat": -29.4622, "lng": 27.5525, "name": "Moshoeshoe I International Airport" },
    { "code": "ROB", "city": "Monrovia", "country": "Liberia", "lat": 6.2339, "lng": -10.3622, "name": "Roberts International Airport" },
    { "code": "TIP", "city": "Tripoli", "country": "Libya", "lat": 32.6636, "lng": 13.1589, "name": "Tripoli International Airport" },
    { "code": "TNR", "city": "Antananarivo", "country": "Madagascar", "lat": -18.7969, "lng": 47.4789, "name": "Ivato International Airport" },
    { "code": "LLW", "city": "Lilongwe", "country": "Malawi", "lat": -13.7894, "lng": 33.7811, "name": "Lilongwe International Airport" },
    { "code": "BKO", "city": "Bamako", "country": "Mali", "lat": 12.5336, "lng": -7.9500, "name": "Modibo Keita International Airport" },
    { "code": "NKC", "city": "Nouakchott", "country": "Mauritania", "lat": 18.2969, "lng": -15.9481, "name": "Nouakchott-Oumtounsy International Airport" },
    { "code": "MRU", "city": "Plaine Magnien", "country": "Mauritius", "lat": -20.4303, "lng": 57.6836, "name": "Sir Seewoosagur Ramgoolam International Airport" },
    { "code": "CMN", "city": "Casablanca", "country": "Morocco", "lat": 33.3675, "lng": -7.5897, "name": "Mohammed V International Airport" },
    { "code": "MPM", "city": "Maputo", "country": "Mozambique", "lat": -25.9208, "lng": 32.5725, "name": "Maputo International Airport" },
    { "code": "WDH", "city": "Windhoek", "country": "Namibia", "lat": -22.4800, "lng": 17.4717, "name": "Hosea Kutako International Airport" },
    { "code": "NIM", "city": "Niamey", "country": "Niger", "lat": 13.4817, "lng": 2.1836, "name": "Diori Hamani International Airport" },
    { "code": "LOS", "city": "Lagos", "country": "Nigeria", "lat": 6.5774, "lng": 3.3211, "name": "Murtala Muhammed International Airport" },
    { "code": "KGL", "city": "Kigali", "country": "Rwanda", "lat": -1.9686, "lng": 30.1394, "name": "Kigali International Airport" },
    { "code": "TMS", "city": "Sao Tome", "country": "Sao Tome and Principe", "lat": 0.3781, "lng": 6.7122, "name": "São Tomé International Airport" },
    { "code": "DKR", "city": "Dakar", "country": "Senegal", "lat": 14.6447, "lng": -17.0756, "name": "Blaise Diagne International Airport" },
    { "code": "SEZ", "city": "Victoria", "country": "Seychelles", "lat": -4.6744, "lng": 55.5219, "name": "Seychelles International Airport" },
    { "code": "FNA", "city": "Freetown", "country": "Sierra Leone", "lat": 8.6164, "lng": -13.1956, "name": "Lungi International Airport" },
    { "code": "MGQ", "city": "Mogadishu", "country": "Somalia", "lat": 2.0133, "lng": 45.3044, "name": "Aden Adde International Airport" },
    { "code": "JNB", "city": "Johannesburg", "country": "South Africa", "lat": -26.1392, "lng": 28.2461, "name": "O. R. Tambo International Airport" },
    { "code": "JUB", "city": "Juba", "country": "South Sudan", "lat": 4.8722, "lng": 31.6011, "name": "Juba International Airport" },
    { "code": "KRT", "city": "Khartoum", "country": "Sudan", "lat": 15.5894, "lng": 32.5531, "name": "Khartoum International Airport" },
    { "code": "SHO", "city": "Manzini", "country": "Eswatini", "lat": -26.5283, "lng": 31.7175, "name": "King Mswati III International Airport" },
    { "code": "DAR", "city": "Dar es Salaam", "country": "Tanzania", "lat": -6.8781, "lng": 39.2025, "name": "Julius Nyerere International Airport" },
    { "code": "LFW", "city": "Lomé", "country": "Togo", "lat": 6.1656, "lng": 1.2544, "name": "Lomé-Tokoin Airport" },
    { "code": "TUN", "city": "Tunis", "country": "Tunisia", "lat": 36.8511, "lng": 10.2272, "name": "Tunis-Carthage International Airport" },
    { "code": "EBB", "city": "Entebbe", "country": "Uganda", "lat": 0.0425, "lng": 32.4433, "name": "Entebbe International Airport" },
    { "code": "LUN", "city": "Lusaka", "country": "Zambia", "lat": -15.3308, "lng": 28.4528, "name": "Kenneth Kaunda International Airport" },
    { "code": "HRE", "city": "Harare", "country": "Zimbabwe", "lat": -17.9319, "lng": 31.0928, "name": "Robert Gabriel Mugabe International Airport" }
]