[
    { "code": "KBL", "city": "Kabul", "country": "Afghanistan", "lat": 34.5658, "lng": 69.2122, "name": "Hamid Karzai International Airport" },
    { "code": "EVN", "city": "Yerevan", "country": "Armenia", "lat": 40.1472, "lng": 44.3958, "name": "Zvartnots International Airport" },
    { "code": "GYD", "city": "Baku", "country": "Azerbaijan", "lat": 40.4675, "lng": 50.0467, "name": "Heydar Aliyev International Airport" },
    { "code": "DAC", "city": "Dhaka", "country": "Bangladesh", "lat": 23.8433, "lng": 90.3978, "name": "Hazrat Shahjalal International Airport" },
    { "code": "CGP", "city": "Chittagong", "country": "Bangladesh", "lat": 22.2497, "lng": 91.8133, "name": "Shah Amanat International Airport" },
    { "code": "PBH", "city": "Paro", "country": "Bhutan", "lat": 27.4031, "lng": 89.4244, "name": "Paro Airport" },
    { "code": "BWN", "city": "Bandar Seri Begawan", "country": "Brunei", "lat": 4.9442, "lng": 114.9283, "name": "Brunei International Airport" },
    { "code": "PNH", "city": "Phnom Penh", "country": "Cambodia", "lat": 11.5464, "lng": 104.8442, "name": "Phnom Penh International Airport" },
    { "code": "PEK", "city": "Beijing", "country": "China", "lat": 40.0800, "lng": 116.5844, "name": "Beijing Capital International Airport" },
    { "code": "PVG", "city": "Shanghai", "country": "China", "lat": 31.1433, "lng": 121.8053, "name": "Shanghai Pudong International Airport" },
    { "code": "CAN", "city": "Guangzhou", "country": "China", "lat": 23.3925, "lng": 113.2989, "name": "Guangzhou Baiyun International Airport" },
    { "code": "CTU", "city": "Chengdu", "country": "China", "lat": 30.5785, "lng": 103.9471, "name": "Chengdu Shuangliu International Airport" },
    { "code": "SZX", "city": "Shenzhen", "country": "China", "lat": 22.6393, "lng": 113.8111, "name": "Shenzhen Bao'an International Airport" },
    { "code": "KMG", "city": "Kunming", "country": "China", "lat": 25.1019, "lng": 102.9289, "name": "Kunming Changshui International Airport" },
    { "code": "XIY", "city": "Xi'an", "country": "China", "lat": 34.4471, "lng": 108.7517, "name": "Xi'an Xianyang International Airport" },
    { "code": "CKG", "city": "Chongqing", "country": "China", "lat": 29.7192, "lng": 106.6417, "name": "Chongqing Jiangbei International Airport" },
    { "code": "HGH", "city": "Hangzhou", "country": "China", "lat": 30.2294, "lng": 120.4344, "name": "Hangzhou Xiaoshan International Airport" },
    { "code": "XMN", "city": "Xiamen", "country": "China", "lat": 24.5442, "lng": 118.1278, "name": "Xiamen Gaoqi International Airport" },
    { "code": "HKG", "city": "Hong Kong", "country": "Hong Kong", "lat": 22.3089, "lng": 113.9144, "name": "Hong Kong International Airport" },
    { "code": "DEL", "city": "New Delhi", "country": "India", "lat": 28.5665, "lng": 77.1031, "name": "Indira Gandhi International Airport" },
    { "code": "BOM", "city": "Mumbai", "country": "India", "lat": 19.0896, "lng": 72.8656, "name": "Chhatrapati Shivaji Maharaj International Airport" },
    { "code": "BLR", "city": "Bengaluru", "country": "India", "lat": 13.1986, "lng": 77.7066, "name": "Kempegowda International Airport" },
    { "code": "MAA", "city": "Chennai", "country": "India", "lat": 12.9941, "lng": 80.1709, "name": "Chennai International Airport" },
    { "code": "CCU", "city": "Kolkata", "country": "India", "lat": 22.6547, "lng": 88.4467, "name": "Netaji Subhas Chandra Bose International Airport" },
    { "code": "HYD", "city": "Hyderabad", "country": "India", "lat": 17.2403, "lng": 78.4294, "name": "Rajiv Gandhi International Airport" },
    { "code": "CGK", "city": "Jakarta", "country": "Indonesia", "lat": -6.1256, "lng": 106.6558, "name": "Soekarno-Hatta International Airport" },
    { "code": "IKA", "city": "Tehran", "country": "Iran", "lat": 35.4161, "lng": 51.1522, "name": "Imam Khomeini International Airport" },
    { "code": "BGW", "city": "Baghdad", "country": "Iraq", "lat": 33.2625, "lng": 44.2344, "name": "Baghdad International Airport" },
    { "code": "HND", "city": "Tokyo", "country": "Japan", "lat": 35.5522, "lng": 139.7797, "name": "Haneda Airport" },
    { "code": "NRT", "city": "Tokyo", "country": "Japan", "lat": 35.7647, "lng": 140.3864, "name": "Narita International Airport" },
    { "code": "KIX", "city": "Osaka", "country": "Japan", "lat": 34.4272, "lng": 135.2442, "name": "Kansai International Airport" },
    { "code": "FUK", "city": "Fukuoka", "country": "Japan", "lat": 33.5861, "lng": 130.4506, "name": "Fukuoka Airport" },
    { "code": "CTS", "city": "Sapporo", "country": "Japan", "lat": 42.7753, "lng": 141.6925, "name": "New Chitose Airport" },
    { "code": "NGO", "city": "Nagoya", "country": "Japan", "lat": 34.8583, "lng": 136.8053, "name": "Chubu Centrair International Airport" },
    { "code": "OKA", "city": "Okinawa", "country": "Japan", "lat": 26.1958, "lng": 127.6458, "name": "Naha Airport" },
    { "code": "ALA", "city": "Almaty", "country": "Kazakhstan", "lat": 43.3522, "lng": 77.0405, "name": "Almaty International Airport" },
    { "code": "FRU", "city": "Bishkek", "country": "Kyrgyzstan", "lat": 43.0613, "lng": 74.4776, "name": "Manas International Airport" },
    { "code": "VTE", "city": "Vientiane", "country": "Laos", "lat": 17.9883, "lng": 102.5633, "name": "Wattay International Airport" },
    { "code": "KUL", "city": "Kuala Lumpur", "country": "Malaysia", "lat": 2.7456, "lng": 101.7099, "name": "Kuala Lumpur International Airport" },
    { "code": "PEN", "city": "Penang", "country": "Malaysia", "lat": 5.2972, "lng": 100.2767, "name": "Penang International Airport" },
    { "code": "BKI", "city": "Kota Kinabalu", "country": "Malaysia", "lat": 5.9372, "lng": 116.0511, "name": "Kota Kinabalu International Airport" },
    { "code": "MLE", "city": "Mal√©", "country": "Maldives", "lat": 4.1918, "lng": 73.5291, "name": "Velana International Airport" },
    { "code": "ULN", "city": "Ulaanbaatar", "country": "Mongolia", "lat": 47.6533, "lng": 106.7669, "name": "Chinggis Khaan International Airport" },
    { "code": "RGN", "city": "Yangon", "country": "Myanmar", "lat": 16.9073, "lng": 96.1332, "name": "Yangon International Airport" },
    { "code": "KTM", "city": "Kathmandu", "country": "Nepal", "lat": 27.6967, "lng": 85.3592, "name": "Tribhuvan International Airport" },
    { "code": "FNJ", "city": "Pyongyang", "country": "North Korea", "lat": 39.2236, "lng": 125.6703, "name": "Pyongyang Sunan International Airport" },
    { "code": "ISB", "city": "Islamabad", "country": "Pakistan", "lat": 33.5492, "lng": 72.8256, "name": "Islamabad International Airport" },
    { "code": "KHI", "city": "Karachi", "country": "Pakistan", "lat": 24.9074, "lng": 67.1608, "name": "Jinnah International Airport" },
    { "code": "LHE", "city": "Lahore", "country": "Pakistan", "lat": 31.5217, "lng": 74.4036, "name": "Allama Iqbal International Airport" },
    { "code": "MNL", "city": "Manila", "country": "Philippines", "lat": 14.5086, "lng": 121.0194, "name": "Ninoy Aquino International Airport" },
    { "code": "CEB", "city": "Cebu", "country": "Philippines", "lat": 10.3075, "lng": 123.9794, "name": "Mactan-Cebu International Airport" },
    { "code": "SVO", "city": "Moscow", "country": "Russia", "lat": 55.9726, "lng": 37.4146, "name": "Sheremetyevo International Airport" },
    { "code": "DME", "city": "Moscow", "country": "Russia", "lat": 55.4103, "lng": 37.9025, "name": "Domodedovo International Airport" },
    { "code": "VKO", "city": "Moscow", "country": "Russia", "lat": 55.6059, "lng": 37.2876, "name": "Vnukovo International Airport" },
    { "code": "LED", "city": "Saint Petersburg", "country": "Russia", "lat": 59.8003, "lng": 30.2625, "name": "Pulkovo Airport" },
    { "code": "AER", "city": "Sochi", "country": "Russia", "lat": 43.4499, "lng": 39.9566, "name": "Sochi International Airport" },
    { "code": "OVB", "city": "Novosibirsk", "country": "Russia", "lat": 55.0126, "lng": 82.6511, "name": "Tolmachevo Airport" },
    { "code": "SVX", "city": "Yekaterinburg", "country": "Russia", "lat": 56.7431, "lng": 60.8027, "name": "Koltsovo International Airport" },
    { "code": "KJA", "city": "Krasnoyarsk", "country": "Russia", "lat": 56.1729, "lng": 92.4937, "name": "Yemelyanovo Airport" },
    { "code": "IKT", "city": "Irkutsk", "country": "Russia", "lat": 52.26806, "lng": 104.38889, "name": "Irkutsk International Airport" },
    { "code": "VVO", "city": "Vladivostok", "country": "Russia", "lat": 43.39917, "lng": 132.15139, "name": "Vladivostok International Airport" },
    { "code": "IKT", "city": "Irkutsk", "country": "Russia", "lat": 52.26806, "lng": 104.38889, "name": "Irkutsk International Airport" },
    { "code": "UUD", "city": "Ulan-Ude", "country": "Russia", "lat": 51.809, "lng": 107.44, "name": "Baikal International Airport" },
    { "code": "YKS", "city": "Yakutsk", "country": "Russia", "lat": 62.0933, "lng": 129.7710, "name": "Platon Oyunsky Yakutsk International Airport" },
    { "code": "SIN", "city": "Singapore", "country": "Singapore", "lat": 1.3644, "lng": 103.9915, "name": "Singapore Changi Airport" },
    { "code": "ICN", "city": "Seoul", "country": "South Korea", "lat": 37.4692, "lng": 126.4505, "name": "Incheon International Airport" },
    { "code": "GMP", "city": "Seoul", "country": "South Korea", "lat": 37.5583, "lng": 126.7906, "name": "Gimpo International Airport" },
    { "code": "CJU", "city": "Jeju", "country": "South Korea", "lat": 33.5114, "lng": 126.4928, "name": "Jeju International Airport" },
    { "code": "PUS", "city": "Busan", "country": "South Korea", "lat": 35.1794, "lng": 128.9381, "name": "Gimhae International Airport" },
    { "code": "CMB", "city": "Colombo", "country": "Sri Lanka", "lat": 7.1802, "lng": 79.8842, "name": "Bandaranaike International Airport" },
    { "code": "TPE", "city": "Taipei", "country": "Taiwan", "lat": 25.0767, "lng": 121.2328, "name": "Taiwan Taoyuan International Airport" },
    { "code": "KHH", "city": "Kaohsiung", "country": "Taiwan", "lat": 22.5771, "lng": 120.3500, "name": "Kaohsiung International Airport" },
    { "code": "DYU", "city": "Dushanbe", "country": "Tajikistan", "lat": 38.5433, "lng": 68.8250, "name": "Dushanbe International Airport" },
    { "code": "BKK", "city": "Bangkok", "country": "Thailand", "lat": 13.6899, "lng": 100.7501, "name": "Suvarnabhumi Airport" },
    { "code": "DMK", "city": "Bangkok", "country": "Thailand", "lat": 13.9125, "lng": 100.6067, "name": "Don Mueang International Airport" },
    { "code": "HKT", "city": "Phuket", "country": "Thailand", "lat": 8.1131, "lng": 98.3169, "name": "Phuket International Airport" },
    { "code": "CNX", "city": "Chiang Mai", "country": "Thailand", "lat": 18.7669, "lng": 98.9628, "name": "Chiang Mai International Airport" },
    { "code": "DIL", "city": "Dili", "country": "Timor-Leste", "lat": -8.5461, "lng": 125.5247, "name": "Presidente Nicolau Lobato International Airport" },
    { "code": "ASB", "city": "Ashgabat", "country": "Turkmenistan", "lat": 37.9872, "lng": 58.3608, "name": "Ashgabat International Airport" },
    { "code": "TAS", "city": "Tashkent", "country": "Uzbekistan", "lat": 41.2575, "lng": 69.2811, "name": "Tashkent International Airport" },
    { "code": "HAN", "city": "Hanoi", "country": "Vietnam", "lat": 21.2212, "lng": 105.8072, "name": "Noi Bai International Airport" }
]