[
    {"code": "ANU","city": "St. John's","country": "Antigua and Barbuda","lat": 17.1367,"lng": -61.7928,"name": "V.C. Bird International Airport"},
    {"code": "AUA","city": "Oranjestad","country": "Aruba","lat": 12.5014,"lng": -70.0152,"name": "Queen Beatrix International Airport"},
    {"code": "FPO","city": "Freeport","country": "Bahamas","lat": 26.5581,"lng": -78.6956,"name": "Grand Bahama International Airport"},
    {"code": "NAS","city": "Nassau","country": "Bahamas","lat": 25.0389,"lng": -77.4661,"name": "Lynden Pindling International Airport"},
    {"code": "BGI","city": "Bridgetown","country": "Barbados","lat": 13.0761,"lng": -59.4925,"name": "Grantley Adams International Airport"},
    {"code": "BON","city": "Kralendijk","country": "Bonaire","lat": 12.1311,"lng": -68.2685,"name": "Flamingo International Airport"},
    {"code": "GCM","city": "George Town","country": "Cayman Islands","lat": 19.2928,"lng": -81.3578,"name": "Owen Roberts International Airport"},
    {"code": "HAV","city": "Havana","country": "Cuba","lat": 22.9892,"lng": -82.4091,"name": "José Martí International Airport"},
    {"code": "VRA","city": "Varadero","country": "Cuba","lat": 23.0342,"lng": -81.4353,"name": "Juan Gualberto Gómez Airport"},
    {"code": "CUR","city": "Willemstad","country": "Curacao","lat": 12.1889,"lng": -68.9597,"name": "Curaçao International Airport"},
    {"code": "DOM","city": "Roseau","country": "Dominica","lat": 15.5469,"lng": -61.3,"name": "Douglas-Charles Airport"},
    {"code": "PUJ","city": "Punta Cana","country": "Dominican Republic","lat": 18.5674,"lng": -68.3634,"name": "Punta Cana International Airport"},
    {"code": "STI","city": "Santiago","country": "Dominican Republic","lat": 19.4061,"lng": -70.6047,"name": "Cibao International Airport"},
    {"code": "SDQ","city": "Santo Domingo","country": "Dominican Republic","lat": 18.4297,"lng": -69.6689,"name": "Las Américas International Airport"},
    {"code": "CAY","city": "Cayenne","country": "French Guiana","lat": 4.8197,"lng": -52.3603,"name": "Cayenne – Félix Eboué Airport"},
    {"code": "GND","city": "St. George's","country": "Grenada","lat": 12.0042,"lng": -61.7861,"name": "Maurice Bishop International Airport"},
    {"code": "PTP","city": "Pointe-à-Pitre","country": "Guadeloupe","lat": 16.2653,"lng": -61.5317,"name": "Pointe-à-Pitre International Airport"},
    {"code": "KIN","city": "Kingston","country": "Jamaica","lat": 17.9357,"lng": -76.7875,"name": "Norman Manley International Airport"},
    {"code": "MBJ","city": "Montego Bay","country": "Jamaica","lat": 18.5037,"lng": -77.9134,"name": "Sangster International Airport"},
    {"code": "FDF","city": "Fort-de-France","country": "Martinique","lat": 14.5909,"lng": -61.0031,"name": "Martinique Aimé Césaire International Airport"},
    {"code": "BQN","city": "Aguadilla","country": "Puerto Rico","lat": 18.4947,"lng": -67.1294,"name": "Rafael Hernández Airport"},
    {"code": "PSE","city": "Ponce","country": "Puerto Rico","lat": 18.0083,"lng": -66.5631,"name": "Mercedita Airport"},
    {"code": "SJU","city": "San Juan","country": "Puerto Rico","lat": 18.4394,"lng": -66.0017,"name": "Luis Muñoz Marín International Airport"},
    {"code": "SAB","city": "The Bottom","country": "Saba","lat": 17.6455,"lng": -63.2202,"name": "Juancho E. Yrausquin Airport"},
    {"code": "SBH","city": "Gustavia","country": "Saint Barthelemy","lat": 17.9044,"lng": -62.8436,"name": "Gustaf III Airport"},
    {"code": "SKB","city": "Basseterre","country": "Saint Kitts and Nevis","lat": 17.3111,"lng": -62.7178,"name": "Robert L. Bradshaw International Airport"},
    {"code": "UVF","city": "Vieux Fort","country": "Saint Lucia","lat": 13.7331,"lng": -60.9528,"name": "Hewanorra International Airport"},
    {"code": "SFG","city": "Marigot","country": "Saint Martin","lat": 18.1006,"lng": -63.0472,"name": "L'Espérance Airport"},
    {"code": "SVD","city": "Kingstown","country": "Saint Vincent and the Grenadines","lat": 13.1439,"lng": -61.2108,"name": "Argyle International Airport"},
    {"code": "EUX","city": "Oranjestad","country": "Sint Eustatius","lat": 17.4964,"lng": -62.9794,"name": "F. D. Roosevelt Airport"},
    {"code": "SXM","city": "Philipsburg","country": "Sint Maarten","lat": 18.0406,"lng": -63.1089,"name": "Princess Juliana International Airport"},
    {"code": "POS","city": "Port of Spain","country": "Trinidad and Tobago","lat": 10.5955,"lng": -61.3372,"name": "Piarco International Airport"},
    {"code": "STT","city": "Charlotte Amalie","country": "US Virgin Islands","lat": 18.3373,"lng": -64.9733,"name": "Cyril E. King Airport"},
    {"code": "STX","city": "Christiansted","country": "US Virgin Islands","lat": 17.7019,"lng": -64.7986,"name": "Henry E. Rohlsen Airport"}
]