[
{ "code":"AHS", "city":"Ahuas","lat":"15.4722","lng":"-84.352203","name":"Ahuas Airport"}, 
{ "code":"PAC", "city":"Albrook","lat":"8.97334","lng":"-79.555603","name":"Marcos A. Gelabert International Airport"}, 
{ "code":"BZE", "city":"Belize City","lat":"17.539951","lng":"-88.303556","name":"Philip S. W. Goldson International Airport"}, 
{ "code":"TZA", "city":"Belize City","lat":"17.517239","lng":"-88.195775","name":"Sir Barry Bowen Municipal Airport"}, 
{ "code":"BCV", "city":"Belmopan","lat":"17.269603","lng":"-88.776496","name":"Hector Silva Airstrip"}, 
{ "code":"BGK", "city":"Big Creek","lat":"16.519369","lng":"-88.407913","name":"Big Creek Airport"}, 
{ "code":"BEF", "city":"Bluefileds","lat":"11.991","lng":"-83.774101","name":"Bluefields Airport"}, 
{ "code":"SAX", "city":"Boca de Sábalo","lat":"8.026279","lng":"-78.209555","name":"Sambú Airport"}, 
{ "code":"BZA", "city":"Bonanza","lat":"14.031524","lng":"-84.624311","name":"San Pedro Airport"}, 
{ "code":"FMG", "city":"Brasilito","lat":"10.4186000823975","lng":"-85.7826995849609","name":"Flamingo Airport"}, 
{ "code":"BHG", "city":"Brus Laguna","lat":"15.7631","lng":"-84.543602","name":"Brus Laguna Airport"}, 
{ "code":"CSC", "city":"Cañas","lat":"10.4307003021","lng":"-85.1745986938","name":"Mojica Airport"}, 
{ "code":"CMM", "city":"Carmelita","lat":"17.461201","lng":"-90.053703","name":"Carmelita Airport"}, 
{ "code":"PLD", "city":"Carrillo","lat":"9.87051","lng":"-85.4814","name":"Playa Samara/Carrillo Airport"}, 
{ "code":"CTE", "city":"Cartí Islands","lat":"9.452863","lng":"-78.978917","name":"Cartí Airport"}, 
{ "code":"CDD", "city":"Cauquira","lat":"15.316667","lng":"-83.591667","name":"Cauquira Airport"}, 
{ "code":"CUK", "city":"Caye Caulker","lat":"17.735015","lng":"-88.032862","name":"Caye Caulker Airport"}, 
{ "code":"CYC", "city":"Caye Chapel","lat":"17.683792","lng":"-88.044985","name":"Caye Chapel Airport"}, 
{ "code":"CHX", "city":"Changuinola","lat":"9.458962","lng":"-82.515062","name":"Changuinola Captain Manuel Niño International Airport"}, 
{ "code":"CIQ", "city":"Chiquimula","lat":"14.83092","lng":"-89.520938","name":"Chiquimula Airport"}, 
{ "code":"CTD", "city":"Chitré","lat":"7.98784","lng":"-80.409837","name":"Alonso Valderrama Airport"}, 
{ "code":"CTF", "city":"Coatepeque","lat":"14.6942","lng":"-91.8825","name":"Coatepeque Airport"}, 
{ "code":"CBV", "city":"Coban","lat":"15.469","lng":"-90.4067","name":"Coban Airport"}, 
{ "code":"ACO", "city":"Cóbano","lat":"9.693365","lng":"-85.091216","name":"Cóbano Airport"}, 
{ "code":"TUW", "city":"Coetupo","lat":"8.918601","lng":"-77.709182","name":"Tubualá Airport"}, 
{ "code":"ONX", "city":"Colón","lat":"9.35664","lng":"-79.867401","name":"Enrique Adolfo Jimenez Airport"}, 
{ "code":"OTD", "city":"Contadora Island","lat":"8.62876","lng":"-79.034698","name":"Raul Arias Espinoza Airport"}, 
{ "code":"RUY", "city":"Copán Ruinas","lat":"14.914885","lng":"-89.007837","name":"Rioamarillo Airport"}, 
{ "code":"RNI", "city":"Corn Island","lat":"12.174785","lng":"-83.059445","name":"Corn Island Airport"}, 
{ "code":"CZH", "city":"Corozal","lat":"18.3822","lng":"-88.411903","name":"Corozal Airport"}, 
{ "code":"OTR", "city":"Corredores","lat":"8.60156","lng":"-82.968754","name":"Coto 47 Airport"}, 
{ "code":"TOO", "city":"Coto Brus","lat":"8.826971","lng":"-82.958922","name":"San Vito de Java Airport"}, 
{ "code":"RTB", "city":"Coxen Hole","lat":"16.316799","lng":"-86.523003","name":"Juan Manuel Gálvez International Airport"}, 
{ "code":"CYL", "city":"Coyoles","lat":"15.445556","lng":"-86.675278","name":"Coyoles Airport"}, 
{ "code":"DGA", "city":"Dangriga","lat":"16.98251","lng":"-88.230988","name":"Dangriga Airport"}, 
{ "code":"DAV", "city":"David","lat":"8.391","lng":"-82.434998","name":"Enrique Malek International Airport"}, 
{ "code":"DON", "city":"Dos Lagunas","lat":"17.6124","lng":"-89.6884","name":"Dos Lagunas Airport"}, 
{ "code":"CAA", "city":"El Aguacate","lat":"14.875","lng":"-85.776108","name":"El Aguacate Airport"}, 
{ "code":"ENJ", "city":"El Naranjo","lat":"14.106931","lng":"-90.817496","name":"El Naranjo Airport"}, 
{ "code":"PVE", "city":"El Porvenir","lat":"9.559212","lng":"-78.946631","name":"El Porvenir Airport"}, 
{ "code":"ELE", "city":"El Real de Santa María","lat":"8.107235","lng":"-77.725545","name":"EL Real Airport"}, 
{ "code":"EDQ", "city":"Erandique","lat":"14.235833","lng":"-88.437225","name":"Erandique Airport"}, 
{ "code":"GHE", "city":"Garachiné","lat":"8.0644","lng":"-78.3673","name":"Garachiné Airport"}, 
{ "code":"GLF", "city":"Golfito","lat":"8.65401","lng":"-83.182198","name":"Golfito Airport"}, 
{ "code":"GAC", "city":"Gracias","lat":"14.573492","lng":"-88.595801","name":"Celaque Gracias Airport"}, 
{ "code":"GJA", "city":"Guanaja","lat":"16.4454","lng":"-85.906601","name":"La Laguna Airport"}, 
{ "code":"GUA", "city":"Guatemala City","lat":"14.5833","lng":"-90.527496","name":"La Aurora Airport"}, 
{ "code":"HUG", "city":"Huehuetenango","lat":"15.316667","lng":"-91.505556","name":"Huehuetenango Airport"}, 
{ "code":"INB", "city":"Independence","lat":"16.53456","lng":"-88.441615","name":"Independence Airport"}, 
{ "code":"IRN", "city":"Iriona","lat":"15.9391670227","lng":"-85.13722229","name":"Iriona Airport"}, 
{ "code":"BOC", "city":"Isla Colón","lat":"9.34085","lng":"-82.250801","name":"Bocas del Toro International Airport"}, 
{ "code":"NMG", "city":"Isla del Rey","lat":"8.456507","lng":"-78.934214","name":"San Miguel Airport"}, 
{ "code":"AIL", "city":"Isla Lorenzo Bello","lat":"9.2226","lng":"-78.0236","name":"Ailigandí Airport"}, 
{ "code":"IVI", "city":"Isla Viveros","lat":"8.4693","lng":"-79.0016","name":"Viveros Island Airport"}, 
{ "code":"JQE", "city":"Jaqué","lat":"7.51778","lng":"-78.157204","name":"Jaqué Airport"}, 
{ "code":"JUT", "city":"Jutigalpa","lat":"14.6526002883911","lng":"-86.2202987670898","name":"Jutigalpa airport"}, 
{ "code":"LCE", "city":"La Ceiba","lat":"15.7425","lng":"-86.852997","name":"Goloson International Airport"}, 
{ "code":"LEZ", "city":"La Esperanza","lat":"14.291111","lng":"-88.175003","name":"La Esperanza Airport"}, 
{ "code":"FON", "city":"La Fortuna","lat":"10.469311","lng":"-84.579073","name":"La Fortuna Arenal Airport"}, 
{ "code":"LLH", "city":"La Lima","lat":"15.442801","lng":"-87.898564","name":"La Lima - Reginaldo Hammer Airport"}, 
{ "code":"RFS", "city":"La Rosita","lat":"13.8896999359131","lng":"-84.4088973999023","name":"Rosita Airport"}, 
{ "code":"LUI", "city":"La Unión","lat":"15.033192","lng":"-86.692334","name":"Carta Airport"}, 
{ "code":"SIC", "city":"Las Perlas","lat":"8.2622","lng":"-79.078","name":"San José Island Airport"}, 
{ "code":"LIR", "city":"Liberia","lat":"10.5933","lng":"-85.544403","name":"Guanacaste Airport"}, 
{ "code":"LMH", "city":"Limón","lat":"15.856066","lng":"-85.443978","name":"Limon Airport"}, 
{ "code":"LSL", "city":"Los Chiles","lat":"11.0353","lng":"-84.7061","name":"Los Chiles Airport"}, 
{ "code":"ACU", "city":"Mamitupu","lat":"9.188481","lng":"-77.994153","name":"Achutupu Airport"}, 
{ "code":"MPI", "city":"Mamitupu","lat":"9.1851","lng":"-77.9841","name":"Mamitupu Airport"}, 
{ "code":"MGA", "city":"Managua","lat":"12.1415004730225","lng":"-86.1681976318359","name":"Augusto C. Sandino (Managua) International Airport"}, 
{ "code":"CYD", "city":"Maya Flats","lat":"17.104872","lng":"-89.101129","name":"San Ignacio Town (Maya Flats) Airstrip"}, 
{ "code":"MDB", "city":"Melinda","lat":"17.004299","lng":"-88.304199","name":"Melinda Airport"}, 
{ "code":"MPP", "city":"Mulatupo","lat":"8.945487","lng":"-77.733486","name":"Mulatupo Airport"}, 
{ "code":"PBP", "city":"Nandayure","lat":"9.85611","lng":"-85.370796","name":"Islita Airport"}, 
{ "code":"NOB", "city":"Nicoya","lat":"9.97649002075","lng":"-85.6529998779","name":"Nosara Airport"}, 
{ "code":"TMU", "city":"Nicoya","lat":"9.739307","lng":"-85.016199","name":"Tambor Airport"}, 
{ "code":"NCT", "city":"Nicoya/Guanacate","lat":"10.1394","lng":"-85.445801","name":"Guanacaste Airport"}, 
{ "code":"OAN", "city":"Olanchito","lat":"15.505556","lng":"-86.574722","name":"El Arrayán Airport"}, 
{ "code":"ORZ", "city":"Orange Walk","lat":"18.046767","lng":"-88.583858","name":"H.E Alfredo Martinez (Tower Hill) Airstrip"}, 
{ "code":"PCH", "city":"Palacios","lat":"15.955","lng":"-84.941391","name":"Palacios Airport"}, 
{ "code":"PMZ", "city":"Palmar Sur","lat":"8.95103","lng":"-83.468597","name":"Palmar Sur Airport"}, 
{ "code":"XPL", "city":"Palmerola","lat":"14.3824","lng":"-87.621201","name":"Palmerola International Airport / José Enrique Soto Cano Air Base"}, 
{ "code":"BLB", "city":"Panamá City","lat":"8.91479","lng":"-79.599602","name":"Panamá Pacífico International Airport"}, 
{ "code":"PCG", "city":"Paso Caballos","lat":"17.2639007568","lng":"-90.2563018799","name":"Paso Caballos Airport"}, 
{ "code":"PDM", "city":"Pedasí","lat":"7.534801","lng":"-80.043347","name":"Capt. J. Montenegro Airport"}, 
{ "code":"IPZ", "city":"Pérez Zeledón","lat":"9.348676","lng":"-83.712301","name":"San Isidro del General Airport"}, 
{ "code":"PLJ", "city":"Placencia","lat":"16.536957","lng":"-88.361511","name":"Placencia Airport"}, 
{ "code":"PKJ", "city":"Playa Grande","lat":"15.9975","lng":"-90.741699","name":"Playa Grande Airport"}, 
{ "code":"BCL", "city":"Pococi","lat":"10.7687","lng":"-83.585602","name":"Barra del Colorado Airport"}, 
{ "code":"GPL", "city":"Pococi","lat":"10.2172002792","lng":"-83.7969970703","name":"Guapiles Airport"}, 
{ "code":"PON", "city":"Poptún","lat":"16.325799942017","lng":"-89.41609954834","name":"Poptún Airport"}, 
{ "code":"AML", "city":"Puerto Armuelles","lat":"8.267667","lng":"-82.864537","name":"Puerto Armuelles Airport"}, 
{ "code":"PBR", "city":"Puerto Barrios","lat":"15.7309","lng":"-88.583801","name":"Puerto Barrios Airport"}, 
{ "code":"PUZ", "city":"Puerto Cabezas","lat":"14.0472002029419","lng":"-83.3867034912109","name":"Puerto Cabezas Airport"}, 
{ "code":"PJM", "city":"Puerto Jimenez","lat":"8.53332996368408","lng":"-83.3000030517578","name":"Puerto Jimenez Airport"}, 
{ "code":"PEU", "city":"Puerto Lempira","lat":"15.2622","lng":"-83.781197","name":"Puerto Lempira Airport"}, 
{ "code":"LIO", "city":"Puerto Limon","lat":"9.95796012878418","lng":"-83.0220031738281","name":"Limon International Airport"}, 
{ "code":"PUE", "city":"Puerto Obaldía","lat":"8.668813","lng":"-77.417399","name":"Puerto Obaldía Airport"}, 
{ "code":"BFQ", "city":"Puerto Piña","lat":"7.58737","lng":"-78.179939","name":"Bahia Piña Airport"}, 
{ "code":"GSJ", "city":"Puerto San José","lat":"13.9362","lng":"-90.8358","name":"San José Airport"}, 
{ "code":"BAI", "city":"Punta Arenas","lat":"9.163949","lng":"-83.330171","name":"Buenos Aires Airport"}, 
{ "code":"PND", "city":"Punta Gorda","lat":"16.1024","lng":"-88.808296","name":"Punta Gorda Airport"}, 
{ "code":"DRK", "city":"Puntarenas","lat":"8.71889019012","lng":"-83.6417007446","name":"Drake Bay Airport"}, 
{ "code":"JAP", "city":"Puntarenas","lat":"9.98141","lng":"-84.772697","name":"Chacarita Airport"}, 
{ "code":"XQP", "city":"Quepos","lat":"9.44316","lng":"-84.129799","name":"Quepos Managua Airport"}, 
{ "code":"AAZ", "city":"Quezaltenango","lat":"14.8656","lng":"-91.501999","name":"Quezaltenango Airport"}, 
{ "code":"RER", "city":"Retalhuleu","lat":"14.521431","lng":"-91.697001","name":"Retalhuleu Airport"}, 
{ "code":"LCF", "city":"Rio Dulce","lat":"15.668363","lng":"-88.961763","name":"Las Vegas Airport"}, 
{ "code":"RFR", "city":"Rio Frio / Progreso","lat":"10.3274002075195","lng":"-83.8876037597656","name":"Rio Frio / Progreso Airport"}, 
{ "code":"RIH", "city":"Río Hato","lat":"8.375880241394","lng":"-80.127899169922","name":"Scarlett Martinez International Airport"}, 
{ "code":"RUV", "city":"Rubelsanto","lat":"15.992","lng":"-90.445297","name":"Rubelsanto Airport"}, 
{ "code":"FRS", "city":"San Benito","lat":"16.913799","lng":"-89.866402","name":"Mundo Maya International Airport"}, 
{ "code":"NBL", "city":"San Blas","lat":"9.273476","lng":"-78.139848","name":"Wannukandi Airport"}, 
{ "code":"NCR", "city":"San Carlos","lat":"11.13556","lng":"-84.768727","name":"San Carlos Airport"}, 
{ "code":"SYQ", "city":"San Jose","lat":"9.95705","lng":"-84.139801","name":"Tobías Bolaños International Airport"}, 
{ "code":"SJO", "city":"San José (Alajuela)","lat":"9.99386","lng":"-84.208801","name":"Juan Santamaría International Airport"}, 
{ "code":"SPR", "city":"San Pedro","lat":"17.9139","lng":"-87.9711","name":"John Greif II Airport"}, 
{ "code":"SAP", "city":"San Pedro Sula","lat":"15.4526","lng":"-87.923599","name":"Ramón Villeda Morales International Airport"}, 
{ "code":"ILS", "city":"San Salvador","lat":"13.6995","lng":"-89.119904","name":"Ilopango International Airport"}, 
{ "code":"SAL", "city":"San Salvador (San Luis Talpa)","lat":"13.4409","lng":"-89.055702","name":"Monseñor Óscar Arnulfo Romero International Airport"}, 
{ "code":"STU", "city":"Santa Cruz","lat":"18.2721004486084","lng":"-88.456298828125","name":"Santa Cruz Airport"}, 
{ "code":"AQB", "city":"Santa Cruz del Quiché","lat":"15.0122","lng":"-91.150597","name":"Quiché Airport"}, 
{ "code":"SYP", "city":"Santiago","lat":"8.08559989929199","lng":"-80.9452972412109","name":"Ruben Cantu Airport"}, 
{ "code":"SJX", "city":"Sartaneja","lat":"18.3561","lng":"-88.130798","name":"Sartaneja Airport"}, 
{ "code":"SVK", "city":"Silver Creek","lat":"16.728338","lng":"-88.369174","name":"Silver Creek Airport"}, 
{ "code":"SIU", "city":"Siuna","lat":"13.727222","lng":"-84.777779","name":"Siuna"}, 
{ "code":"SQS", "city":"Spanish Lookout","lat":"17.185898","lng":"-89.009936","name":"Matthew Spain Airport"}, 
{ "code":"SCD", "city":"Sulaco","lat":"14.9071998596191","lng":"-87.2633972167969","name":"Sulaco Airport"}, 
{ "code":"TNO", "city":"Tamarindo","lat":"10.313500404358","lng":"-85.815498352051","name":"Tamarindo Airport"}, 
{ "code":"TGU", "city":"Tegucigalpa","lat":"14.0609","lng":"-87.217201","name":"Toncontín International Airport"}, 
{ "code":"TEA", "city":"Tela","lat":"15.7759","lng":"-87.4758","name":"Tela Airport"}, 
{ "code":"TJC", "city":"Ticantiquí","lat":"9.4185","lng":"-78.4896","name":"Ticantiquí Airport"}, 
{ "code":"TCF", "city":"Tocoa","lat":"15.659722","lng":"-85.994164","name":"Tocoa Airport"}, 
{ "code":"PTY", "city":"Tocumen","lat":"9.07136","lng":"-79.383499","name":"Tocumen International Airport"}, 
{ "code":"ECI", "city":"Tola","lat":"11.427542","lng":"-86.033361","name":"Costa Esmeralda Airport"}, 
{ "code":"TTQ", "city":"Tortuguero","lat":"10.569","lng":"-83.5149","name":"Barra del Tortuguero"}, 
{ "code":"TJI", "city":"Trujillo","lat":"15.926599","lng":"-85.938573","name":"Trujillo Airport"}, 
{ "code":"CZJ", "city":"Tupile","lat":"9.44686","lng":"-78.575678","name":"Corazón de Jesús Airport"}, 
{ "code":"UAX", "city":"Uaxactun","lat":"17.393888","lng":"-89.632744","name":"Uaxactun Airport"}, 
{ "code":"PYC", "city":"Ukupseni","lat":"9.30692","lng":"-78.235273","name":"Playón Chico Airport"}, 
{ "code":"UPL", "city":"Upala","lat":"10.8922","lng":"-85.016197","name":"Upala Airport"}, 
{ "code":"OGM", "city":"Ustupu","lat":"9.1383","lng":"-77.93385","name":"Ogobsucum Airport"}, 
{ "code":"UTU", "city":"Ustupu","lat":"9.1283","lng":"-77.9337","name":"Ustupu Airport"}, 
{ "code":"UII", "city":"Utila Island","lat":"16.1131","lng":"-86.880302","name":"Utila Airport"}, 
{ "code":"WSP", "city":"Waspam","lat":"14.7392","lng":"-83.969398","name":"Waspam Airport"}, 
{ "code":"PYV", "city":"Yaviza","lat":"8.1528","lng":"-77.687","name":"Yaviza Airport"}, 
{ "code":"ORO", "city":"Yoro","lat":"15.1275","lng":"-87.135","name":"Yoro Airport"}
]    