[
    {"code": "TIA","city": "Tirana","country": "Albania","lat": 41.4147,"lng": 19.7206,"name": "Tirana International Airport Nënë Tereza"},
    {"code": "LEU","city": "Andorra la Vella","country": "Andorra","lat": 42.4422,"lng": 1.4506,"name": "Andorra-La Seu d'Urgell Airport"},
    {"code": "EVN","city": "Yerevan","country": "Armenia","lat": 40.1472,"lng": 44.3958,"name": "Zvartnots International Airport"},
    {"code": "INN","city": "Innsbruck","country": "Austria","lat": 47.2602,"lng": 11.3439,"name": "Innsbruck Airport"},
    {"code": "SZG","city": "Salzburg","country": "Austria","lat": 47.7933,"lng": 13.0043,"name": "Salzburg Airport"},
    {"code": "VIE","city": "Vienna","country": "Austria","lat": 48.1103,"lng": 16.5697,"name": "Vienna International Airport"},
    {"code": "GYD","city": "Baku","country": "Azerbaijan","lat": 40.4675,"lng": 50.0467,"name": "Heydar Aliyev International Airport"},
    {"code": "MSQ","city": "Minsk","country": "Belarus","lat": 53.8825,"lng": 28.0308,"name": "Minsk National Airport"},
    {"code": "ANR","city": "Antwerp","country": "Belgium","lat": 51.1894,"lng": 4.4603,"name": "Antwerp International Airport"},
    {"code": "BRU","city": "Brussels","country": "Belgium","lat": 50.9014,"lng": 4.4844,"name": "Brussels Airport"},
    {"code": "SJJ","city": "Sarajevo","country": "Bosnia and Herzegovina","lat": 43.8246,"lng": 18.3315,"name": "Sarajevo International Airport"},
    {"code": "SOF","city": "Sofia","country": "Bulgaria","lat": 42.695,"lng": 23.4114,"name": "Sofia Airport"},
    {"code": "ZAG","city": "Zagreb","country": "Croatia","lat": 45.7429,"lng": 16.0688,"name": "Zagreb Airport"},
    {"code": "LCA","city": "Nicosia","country": "Cyprus","lat": 34.875,"lng": 33.625,"name": "Larnaca International Airport"},
    {"code": "PRG","city": "Prague","country": "Czech Republic","lat": 50.1008,"lng": 14.26,"name": "Václav Havel Airport Prague"},
    {"code": "CPH","city": "Copenhagen","country": "Denmark","lat": 55.6181,"lng": 12.656,"name": "Copenhagen Airport"},
    {"code": "TLL","city": "Tallinn","country": "Estonia","lat": 59.4133,"lng": 24.8328,"name": "Tallinn Airport"},
    {"code": "HEL","city": "Helsinki","country": "Finland","lat": 60.3172,"lng": 24.9633,"name": "Helsinki-Vantaa Airport"},
    {"code": "BIQ","city": "Biarritz","country": "France","lat": 43.4683,"lng": -1.5231,"name": "Biarritz Airport"},
    {"code": "CDG","city": "Paris","country": "France","lat": 49.0097,"lng": 2.5479,"name": "Charles de Gaulle Airport"},
    {"code": "LBG","city": "Paris","country": "France","lat": 48.9694,"lng": 2.4414,"name": "Le Bourget Airport"},
    {"code": "LYS","city": "Lyon","country": "France","lat": 45.7256,"lng": 5.0811,"name": "Lyon-Saint Exupéry Airport"},
    {"code": "MRS","city": "Marseille","country": "France","lat": 43.4393,"lng": 5.2214,"name": "Marseille Provence Airport"},
    {"code": "NCE","city": "Nice","country": "France","lat": 43.6653,"lng": 7.215,"name": "Nice Côte d'Azur Airport"},
    {"code": "ORY","city": "Paris","country": "France","lat": 48.7233,"lng": 2.3794,"name": "Orly Airport"},
    {"code": "TLS","city": "Toulouse","country": "France","lat": 43.6289,"lng": 1.3639,"name": "Toulouse-Blagnac Airport"},
    {"code": "TBS","city": "Tbilisi","country": "Georgia","lat": 41.6692,"lng": 44.9547,"name": "Tbilisi International Airport"},
    {"code": "CGN","city": "Cologne","country": "Germany","lat": 50.8659,"lng": 7.1427,"name": "Cologne Bonn Airport"},
    {"code": "DUS","city": "Düsseldorf","country": "Germany","lat": 51.2895,"lng": 6.7668,"name": "Düsseldorf Airport"},
    {"code": "FRA","city": "Frankfurt","country": "Germany","lat": 50.0379,"lng": 8.5622,"name": "Frankfurt Airport"},
    {"code": "HAM","city": "Hamburg","country": "Germany","lat": 53.6304,"lng": 9.9882,"name": "Hamburg Airport"},
    {"code": "MUC","city": "Munich","country": "Germany","lat": 48.3538,"lng": 11.7861,"name": "Munich Airport"},
    {"code": "TXL","city": "Berlin","country": "Germany","lat": 52.5597,"lng": 13.2877,"name": "Berlin Tegel Airport"},
    {"code": "ATH","city": "Athens","country": "Greece","lat": 37.9364,"lng": 23.9444,"name": "Athens International Airport"},
    {"code": "BUD","city": "Budapest","country": "Hungary","lat": 47.4369,"lng": 19.2556,"name": "Budapest Ferenc Liszt International Airport"},
    {"code": "DUB","city": "Dublin","country": "Ireland","lat": 53.4214,"lng": -6.27,"name": "Dublin Airport"},
    {"code": "CIA","city": "Rome","country": "Italy","lat": 41.7994,"lng": 12.5949,"name": "Ciampino Airport"},
    {"code": "FCO","city": "Rome","country": "Italy","lat": 41.7999,"lng": 12.2462,"name": "Leonardo da Vinci International Airport"},
    {"code": "LIN","city": "Milan","country": "Italy","lat": 45.4454,"lng": 9.2761,"name": "Linate Airport"},
    {"code": "MXP","city": "Milan","country": "Italy","lat": 45.6306,"lng": 8.7281,"name": "Malpensa Airport"},
    {"code": "NAP","city": "Naples","country": "Italy","lat": 40.886,"lng": 14.2906,"name": "Naples International Airport"},
    {"code": "VCE","city": "Venice","country": "Italy","lat": 45.5053,"lng": 12.3519,"name": "Marco Polo Airport"},
    {"code": "PRN","city": "Pristina","country": "Kosovo","lat": 42.5728,"lng": 21.0358,"name": "Pristina International Airport"},
    {"code": "RIX","city": "Riga","country": "Latvia","lat": 56.9236,"lng": 23.9711,"name": "Riga International Airport"},
    {"code": "VNO","city": "Vilnius","country": "Lithuania","lat": 54.6344,"lng": 25.2858,"name": "Vilnius Airport"},
    {"code": "LUX","city": "Luxembourg City","country": "Luxembourg","lat": 49.6233,"lng": 6.2044,"name": "Luxembourg Airport"},
    {"code": "MLA","city": "Valletta","country": "Malta","lat": 35.8575,"lng": 14.4775,"name": "Malta International Airport"},
    {"code": "KIV","city": "Chișinău","country": "Moldova","lat": 46.9278,"lng": 28.9308,"name": "Chișinău International Airport"},
    {"code": "TGD","city": "Podgorica","country": "Montenegro","lat": 42.3594,"lng": 19.2519,"name": "Podgorica Airport"},
    {"code": "AMS","city": "Amsterdam","country": "Netherlands","lat": 52.3105,"lng": 4.7683,"name": "Amsterdam Airport Schiphol"},
    {"code": "SKP","city": "Skopje","country": "North Macedonia","lat": 41.9617,"lng": 21.6214,"name": "Skopje International Airport"},
    {"code": "OSL","city": "Oslo","country": "Norway","lat": 60.1939,"lng": 11.1004,"name": "Oslo Airport"},
    {"code": "WAW","city": "Warsaw","country": "Poland","lat": 52.1658,"lng": 20.9672,"name": "Warsaw Chopin Airport"},
    {"code": "FNC","city": "Funchal","country": "Portugal","lat": 32.6978,"lng": -16.7745,"name": "Cristiano Ronaldo International Airport"},
    {"code": "LIS","city": "Lisbon","country": "Portugal","lat": 38.7813,"lng": -9.1361,"name": "Lisbon Airport"},
    {"code": "OPO","city": "Porto","country": "Portugal","lat": 41.2481,"lng": -8.6814,"name": "Francisco Sá Carneiro Airport"},
    {"code": "OTP","city": "Bucharest","country": "Romania","lat": 44.5722,"lng": 26.1022,"name": "Henri Coandă International Airport"},
    {"code": "BEG","city": "Belgrade","country": "Serbia","lat": 44.8184,"lng": 20.3091,"name": "Belgrade Nikola Tesla Airport"},
    {"code": "BTS","city": "Bratislava","country": "Slovakia","lat": 48.17,"lng": 17.2128,"name": "M. R. Štefánik Airport"},
    {"code": "LJU","city": "Ljubljana","country": "Slovenia","lat": 46.2236,"lng": 14.4575,"name": "Ljubljana Jože Pučnik Airport"},
    {"code": "BCN","city": "Barcelona","country": "Spain","lat": 41.2974,"lng": 2.0833,"name": "Josep Tarradellas Barcelona-El Prat Airport"},
    {"code": "IBZ","city": "Ibiza","country": "Spain","lat": 38.8729,"lng": 1.3731,"name": "Ibiza Airport"},
    {"code": "MAD","city": "Madrid","country": "Spain","lat": 40.4839,"lng": -3.568,"name": "Adolfo Suárez Madrid-Barajas Airport"},
    {"code": "PMI","city": "Palma","country": "Spain","lat": 39.5517,"lng": 2.7388,"name": "Palma de Mallorca Airport"},
    {"code": "SVQ","city": "Seville","country": "Spain","lat": 37.418,"lng": -5.8931,"name": "Seville Airport"},
    {"code": "VLC","city": "Valencia","country": "Spain","lat": 39.4893,"lng": -0.4816,"name": "Valencia Airport"},
    {"code": "ARN","city": "Stockholm","country": "Sweden","lat": 59.6519,"lng": 17.9186,"name": "Stockholm Arlanda Airport"},
    {"code": "BSL","city": "Basel","country": "Switzerland","lat": 47.5896,"lng": 7.5291,"name": "EuroAirport Basel-Mulhouse-Freiburg"},
    {"code": "GVA","city": "Geneva","country": "Switzerland","lat": 46.2381,"lng": 6.1089,"name": "Geneva Airport"},
    {"code": "ZUR","city": "Zurich","country": "Switzerland","lat": 47.4582,"lng": 8.548,"name": "Zurich Airport"},
    {"code": "ESB","city": "Ankara","country": "Turkey","lat": 40.1281,"lng": 32.9951,"name": "Esenboğa International Airport"},
    {"code": "DNK","city": "Dnipro","country": "Ukraine","lat": 48.3572,"lng": 35.1006,"name": "Dnipro International Airport"},
    {"code": "HRK","city": "Kharkiv","country": "Ukraine","lat": 49.9247,"lng": 36.29,"name": "Kharkiv International Airport"},
    {"code": "IEV","city": "Kyiv","country": "Ukraine","lat": 50.4017,"lng": 30.4497,"name": "Kyiv International Airport (Zhuliany)"},
    {"code": "KBP","city": "Kyiv","country": "Ukraine","lat": 50.345,"lng": 30.8947,"name": "Boryspil International Airport"},
    {"code": "LWO","city": "Lviv","country": "Ukraine","lat": 49.8125,"lng": 23.9561,"name": "Lviv Danylo Halytskyi International Airport"},
    {"code": "ODS","city": "Odesa","country": "Ukraine","lat": 46.4267,"lng": 30.6767,"name": "Odesa International Airport"},
    {"code": "OZH","city": "Zaporizhzhia","country": "Ukraine","lat": 47.8672,"lng": 35.3158,"name": "Zaporizhzhia International Airport"},
    {"code": "BHX","city": "Birmingham","country": "United Kingdom","lat": 52.4539,"lng": -1.748,"name": "Birmingham Airport"},
    {"code": "EDI","city": "Edinburgh","country": "United Kingdom","lat": 55.95,"lng": -3.3725,"name": "Edinburgh Airport"},
    {"code": "GLA","city": "Glasgow","country": "United Kingdom","lat": 55.8719,"lng": -4.4331,"name": "Glasgow International Airport"},
    {"code": "LCY","city": "London","country": "United Kingdom","lat": 51.5048,"lng": 0.0495,"name": "London City Airport"},
    {"code": "LGW","city": "London","country": "United Kingdom","lat": 51.1537,"lng": -0.1821,"name": "Gatwick Airport"},
    {"code": "LHR","city": "London","country": "United Kingdom","lat": 51.47,"lng": -0.4543,"name": "Heathrow Airport"},
    {"code": "LTN","city": "London","country": "United Kingdom","lat": 51.8763,"lng": -0.3717,"name": "Luton Airport"},
    {"code": "MAN","city": "Manchester","country": "United Kingdom","lat": 53.3537,"lng": -2.275,"name": "Manchester Airport"},
    {"code": "STN","city": "London","country": "United Kingdom","lat": 51.886,"lng": 0.2389,"name": "Stansted Airport"}
]