[
{ "code":"NKW", "city":"Diego Garcia","lat":"-7.31327","lng":"72.411102","name":"Diego Garcia Naval Support Facility"}, 
{ "code":"XCH", "city":"Flying Fish Cove","lat":"-10.449382","lng":"105.690931","name":"Christmas Island Airport"}, 
{ "code":"RUN", "city":"Sainte-Marie","lat":"-20.890087","lng":"55.518894","name":"Roland Garros Airport"}, 
{ "code":"ZSE", "city":"Saint-Pierre","lat":"-21.319362","lng":"55.422506","name":"Pierrefonds Airport"}, 
{ "code":"SYC", "city":"Seychelles","lat":"-4.674167","lng":"55.521389","name":"Seychelles International Airport"}
]