[
{ "code":"AHB", "city":"Abha","lat":"18.2404","lng":"42.656601","name":"Abha International Airport"}, 
{ "code":"EAB", "city":"Abs","lat":"16.010983","lng":"43.176771","name":"Abs Airport"}, 
{ "code":"AUH", "city":"Abu Dhabi","lat":"24.443764","lng":"54.651718","name":"Zayed International Airport"}, 
{ "code":"AZI", "city":"Abu Dhabi","lat":"24.428301","lng":"54.458099","name":"Al Bateen Executive Airport"}, 
{ "code":"DMM", "city":"Ad Dammam","lat":"26.471201","lng":"49.797901","name":"King Fahd International Airport"}, 
{ "code":"AOM", "city":"Adam","lat":"22.4919444444","lng":"57.3838888889","name":"Adam Airport"}, 
{ "code":"DHL", "city":"Ad-Dali","lat":"13.73846","lng":"44.72719","name":"Ad-Dali Airport"}, 
{ "code":"ADE", "city":"Aden","lat":"12.8295","lng":"45.028801","name":"Aden International Airport"}, 
{ "code":"ADF", "city":"Adıyaman","lat":"37.7314","lng":"38.468899","name":"Adıyaman Airport"}, 
{ "code":"AFY", "city":"Afyonkarahisar","lat":"38.726398","lng":"30.601101","name":"Afyon Air Base"}, 
{ "code":"AJI", "city":"Ağrı","lat":"39.655642","lng":"43.025742","name":"Ağrı Airport"}, 
{ "code":"XIJ", "city":"Ahmed Al Jaber AB","lat":"28.9347991943","lng":"47.7919006348","name":"Ahmed Al Jaber Air Base"}, 
{ "code":"WDA", "city":"Ain District","lat":"14.859579","lng":"45.545705","name":"Al Ain Airport Ain District, Shabwah Governorate, Yemen"}, 
{ "code":"AAN", "city":"Al Ain","lat":"24.2616996765137","lng":"55.6091995239258","name":"Al Ain International Airport"}, 
{ "code":"AAY", "city":"Al Ghaydah","lat":"16.193341","lng":"52.174186","name":"Al Ghaydah International Airport"}, 
{ "code":"AKH", "city":"Al Kharj","lat":"24.0627","lng":"47.580502","name":"Prince Sultan Air Base"}, 
{ "code":"MNH", "city":"Al Masna'ah","lat":"23.640556","lng":"57.4875","name":"Mussanah Airport"}, 
{ "code":"ULH", "city":"Al Ula","lat":"26.483333","lng":"38.116944","name":"Majeed Bin Abdulaziz Airport"}, 
{ "code":"EJH", "city":"Al Wajh","lat":"26.198601","lng":"36.476398","name":"Al Wajh Domestic Airport"}, 
{ "code":"ABT", "city":"Al-Baha","lat":"20.298506","lng":"41.636153","name":"King Saud Bin Abdulaziz (Al Baha) Airport"}, 
{ "code":"BYD", "city":"Al-Bayda","lat":"14.105974","lng":"45.441079","name":"Al-Bayda Airport"}, 
{ "code":"BUK", "city":"Al-Bough","lat":"17.350352","lng":"44.625542","name":"Al-Bough Airport"}, 
{ "code":"ALP", "city":"Aleppo","lat":"36.180698","lng":"37.2244","name":"Aleppo International Airport"}, 
{ "code":"AJF", "city":"Al-Jawf","lat":"29.7851009368896","lng":"40.0999984741211","name":"Al-Jawf Domestic Airport"}, 
{ "code":"KZR", "city":"Altıntaş","lat":"39.113079","lng":"30.128111","name":"Zafer Airport"}, 
{ "code":"MZH", "city":"Amasya","lat":"40.829399","lng":"35.521999","name":"Amasya Merzifon Airport"}, 
{ "code":"AMM", "city":"Amman","lat":"31.7226009369","lng":"35.9931983948","name":"Queen Alia International Airport"}, 
{ "code":"ADJ", "city":"Amman","lat":"31.9727","lng":"35.9916","name":"Amman Civil (Marka International) Airport"}, 
{ "code":"ESB", "city":"Ankara","lat":"40.128101","lng":"32.995098","name":"Esenboğa International Airport"}, 
{ "code":"ANK", "city":"Ankara","lat":"39.949798584","lng":"32.6885986328","name":"Etimesgut Air Base"}, 
{ "code":"HTY", "city":"Antakya","lat":"36.362778","lng":"36.282223","name":"Hatay Airport"}, 
{ "code":"AYT", "city":"Antalya","lat":"36.898701","lng":"30.800501","name":"Antalya International Airport"}, 
{ "code":"AQJ", "city":"Aqaba","lat":"29.6116008758545","lng":"35.0181007385254","name":"Aqaba King Hussein International Airport"}, 
{ "code":"RXA", "city":"Ar Rawdah","lat":"14.44872","lng":"47.27955","name":"Ar Rawdah Airport"}, 
{ "code":"XJD", "city":"Ar Rayyan","lat":"25.1173000336","lng":"51.3149986267","name":"Al Udeid Air Base"}, 
{ "code":"RAE", "city":"Arar","lat":"30.9066009521484","lng":"41.1381988525391","name":"Arar Domestic Airport"}, 
{ "code":"IST", "city":"Arnavutköy, Istanbul","lat":"41.261297","lng":"28.741951","name":"İstanbul Airport"}, 
{ "code":"SLF", "city":"As-Sulayyil","lat":"20.464701","lng":"45.619598","name":"As-Sulayyil Airport"}, 
{ "code":"AXK", "city":"Ataq","lat":"14.5513","lng":"46.826199","name":"Ataq Airport"}, 
{ "code":"CII", "city":"Aydın","lat":"37.815389","lng":"27.887566","name":"Aydın Çıldır Airport"}, 
{ "code":"BJQ", "city":"Bahja","lat":"19.8730555556","lng":"56.0677777778","name":"Bahja Airport"}, 
{ "code":"ISL", "city":"Bakırköy, Istanbul","lat":"40.971913","lng":"28.823714","name":"İstanbul Atatürk Airport"}, 
{ "code":"BZI", "city":"Balıkesir","lat":"39.619301","lng":"27.926001","name":"Balıkesir Airport"}, 
{ "code":"BDM", "city":"Bandırma","lat":"40.318001","lng":"27.977699","name":"Bandırma Airport"}, 
{ "code":"BAL", "city":"Batman","lat":"37.9290008545","lng":"41.1166000366","name":"Batman Airport"}, 
{ "code":"MIP", "city":"Beersheba","lat":"30.7761","lng":"34.666698","name":"Ramon Air Base"}, 
{ "code":"VTM", "city":"Beersheba","lat":"31.2082996368","lng":"35.012298584","name":"Nevatim Air Base"}, 
{ "code":"BEV", "city":"Beersheba","lat":"31.287000656128","lng":"34.722999572754","name":"Beersheba (Teyman) Airport"}, 
{ "code":"BHN", "city":"Beihan","lat":"14.781714","lng":"45.719703","name":"Beihan Airport"}, 
{ "code":"BEY", "city":"Beirut","lat":"33.8208999633789","lng":"35.4883995056152","name":"Beirut Rafic Hariri International Airport"}, 
{ "code":"BGG", "city":"Bingöl","lat":"38.860131","lng":"40.594489","name":"Bingöl Airport"}, 
{ "code":"BHH", "city":"Bisha","lat":"19.9844","lng":"42.620899","name":"Bisha Airport"}, 
{ "code":"BJV", "city":"Bodrum","lat":"37.250599","lng":"27.664301","name":"Milas Bodrum International Airport"}, 
{ "code":"BXN", "city":"Bodrum","lat":"37.140099","lng":"27.669701","name":"Bodrum-Imsık Airport"}, 
{ "code":"ELQ", "city":"Buraidah","lat":"26.302799","lng":"43.774399","name":"Gassim Airport"}, 
{ "code":"RMB", "city":"Buraimi","lat":"24.241626","lng":"55.783674","name":"Buraimi Airport"}, 
{ "code":"CKZ", "city":"Çanakkale","lat":"40.1376991272","lng":"26.4267997742","name":"Çanakkale Airport"}, 
{ "code":"IGL", "city":"Çiğli","lat":"38.513","lng":"27.010099","name":"Çiğli Airbase"}, 
{ "code":"TEQ", "city":"Çorlu","lat":"41.1381988525391","lng":"27.9190998077393","name":"Tekirdağ Çorlu Airport"}, 
{ "code":"DLM", "city":"Dalaman","lat":"36.7131004333","lng":"28.7924995422","name":"Dalaman International Airport"}, 
{ "code":"DAM", "city":"Damascus","lat":"33.4114990234375","lng":"36.5155982971191","name":"Damascus International Airport"}, 
{ "code":"DAH", "city":"Dathina","lat":"13.866884","lng":"46.133473","name":"Dathina Airport"}, 
{ "code":"DWD", "city":"Dawadmi","lat":"24.4499","lng":"44.121201","name":"King Salman Abdulaziz Airport"}, 
{ "code":"DEZ", "city":"Deir ez-Zor","lat":"35.2854","lng":"40.175999","name":"Deir ez-Zor Airport"}, 
{ "code":"ZDY", "city":"Delma Island","lat":"24.51","lng":"52.3352","name":"Delma Airport"}, 
{ "code":"DNZ", "city":"Denizli","lat":"37.7855987549","lng":"29.7012996674","name":"Çardak Airport"}, 
{ "code":"DHA", "city":"Dhahran","lat":"26.2654","lng":"50.152","name":"King Abdulaziz Air Base"}, 
{ "code":"BYB", "city":"Dibba al Baya","lat":"25.614229","lng":"56.2444","name":"Dibba Airport"}, 
{ "code":"DIY", "city":"Diyarbakır","lat":"37.893902","lng":"40.201","name":"Diyarbakır Airport"}, 
{ "code":"DOH", "city":"Doha","lat":"25.273056","lng":"51.608056","name":"Hamad International Airport"}, 
{ "code":"DIA", "city":"Doha","lat":"25.261101","lng":"51.565102","name":"Doha International Airport"}, 
{ "code":"DXB", "city":"Dubai","lat":"25.2527999878","lng":"55.3643989563","name":"Dubai International Airport"}, 
{ "code":"NHD", "city":"Dubai","lat":"25.0268001556","lng":"55.3661994934","name":"Al Minhad Air Base"}, 
{ "code":"DQM", "city":"Duqm","lat":"19.501944","lng":"57.634167","name":"Duqm International Airport"}, 
{ "code":"JNJ", "city":"Duqm","lat":"19.4749","lng":"57.3083","name":"Ja'Aluni Airport"}, 
{ "code":"EDO", "city":"Edremit","lat":"39.5546","lng":"27.0138","name":"Balıkesir Koca Seyit Airport"}, 
{ "code":"ETM", "city":"Eilat","lat":"29.727009","lng":"35.014116","name":"Ramon International Airport"}, 
{ "code":"VDA", "city":"Eilat","lat":"29.9403","lng":"34.935799","name":"Ovda Airport"}, 
{ "code":"EZS", "city":"Elazığ","lat":"38.597974","lng":"39.28348","name":"Elazığ Airport"}, 
{ "code":"ERC", "city":"Erzincan","lat":"39.7102012634","lng":"39.5270004272","name":"Erzincan Airport"}, 
{ "code":"ERZ", "city":"Erzurum","lat":"39.956501","lng":"41.1702","name":"Erzurum International Airport"}, 
{ "code":"AOE", "city":"Eskişehir","lat":"39.809898","lng":"30.5194","name":"Anadolu Airport"}, 
{ "code":"ESK", "city":"Eskişehir","lat":"39.7841","lng":"30.5821","name":"Eskişehir Air Base"}, 
{ "code":"FAU", "city":"Fahud","lat":"22.354759","lng":"56.484146","name":"Fahud Airport"}, 
{ "code":"FJR", "city":"Fujairah","lat":"25.1122","lng":"56.324001","name":"Fujairah International Airport"}, 
{ "code":"GZT", "city":"Gaziantep","lat":"36.947201","lng":"37.478699","name":"Gaziantep International Airport"}, 
{ "code":"ADB", "city":"Gaziemir","lat":"38.2924","lng":"27.157","name":"Adnan Menderes International Airport"}, 
{ "code":"GZP", "city":"Gazipaşa","lat":"36.299217","lng":"32.300598","name":"Gazipaşa-Alanya Airport"}, 
{ "code":"RNM", "city":"Ghaba","lat":"21.377199","lng":"57.056293","name":"Qarn Alam Airport"}, 
{ "code":"GKD", "city":"Gökçeada","lat":"40.204498","lng":"25.883302","name":"Gökçeada Airport"}, 
{ "code":"URY", "city":"Gurayat","lat":"31.412413","lng":"37.278898","name":"Gurayat Domestic Airport"}, 
{ "code":"HFA", "city":"Haifa","lat":"32.809398651123","lng":"35.043098449707","name":"Haifa International Airport"}, 
{ "code":"HAS", "city":"Ha'il","lat":"27.437901","lng":"41.686298","name":"Ha'il Airport"}, 
{ "code":"YKO", "city":"Hakkari","lat":"37.5497","lng":"44.2381","name":"Hakkari Yüksekova Airport"}, 
{ "code":"RSI", "city":"Hanak","lat":"25.627975","lng":"37.088914","name":"Red Sea International Airport"}, 
{ "code":"HOF", "city":"Hofuf","lat":"25.285299","lng":"49.485199","name":"Al-Ahsa International Airport"}, 
{ "code":"IGD", "city":"Iğdır","lat":"39.976627","lng":"43.876648","name":"Iğdır Airport"}, 
{ "code":"ISE", "city":"Isparta","lat":"37.8554","lng":"30.368401","name":"Süleyman Demirel International Airport"}, 
{ "code":"DWC", "city":"Jebel Ali","lat":"24.896356","lng":"55.161389","name":"Al Maktoum International Airport"}, 
{ "code":"JED", "city":"Jeddah","lat":"21.6796","lng":"39.156502","name":"King Abdulaziz International Airport"}, 
{ "code":"GIZ", "city":"Jizan","lat":"16.9011","lng":"42.5858","name":"Jizan Regional Airport / King Abdullah bin Abdulaziz Airport"}, 
{ "code":"QJB", "city":"Jubail","lat":"27.039","lng":"49.405102","name":"Jubail Airport"}, 
{ "code":"KCM", "city":"Kahramanmaraş","lat":"37.5388259888","lng":"36.9535217285","name":"Kahramanmaraş Airport"}, 
{ "code":"KAM", "city":"Kamaran","lat":"15.368755","lng":"42.612515","name":"Kamaran Airport"}, 
{ "code":"KSY", "city":"Kars","lat":"40.562198638916","lng":"43.1150016784668","name":"Kars Airport"}, 
{ "code":"KCO", "city":"Kartepe","lat":"40.735001","lng":"30.0833","name":"Cengiz Topel Airport"}, 
{ "code":"KFS", "city":"Kastamonu","lat":"41.314201","lng":"33.795799","name":"Kastamonu Airport"}, 
{ "code":"ASR", "city":"Kayseri","lat":"38.770401001","lng":"35.4953994751","name":"Kayseri Erkilet Airport"}, 
{ "code":"KMX", "city":"Khamis Mushait","lat":"18.2973","lng":"42.803501","name":"King Khalid Air Base"}, 
{ "code":"KHS", "city":"Khasab","lat":"26.171","lng":"56.240601","name":"Khasab Airport"}, 
{ "code":"KMC", "city":"King Khaled Military City","lat":"27.9009","lng":"45.528198","name":"King Khaled Military City Airport"}, 
{ "code":"KSW", "city":"Kiryat Shmona","lat":"33.216275","lng":"35.59622","name":"Kiryat Shmona Airport"}, 
{ "code":"KYA", "city":"Konya","lat":"37.979","lng":"32.561901","name":"Konya Airport"}, 
{ "code":"KWI", "city":"Kuwait City","lat":"29.226601","lng":"47.968899","name":"Kuwait International Airport"}, 
{ "code":"LTK", "city":"Latakia","lat":"35.4011","lng":"35.9487","name":"Hmeimim Air Base"}, 
{ "code":"LKW", "city":"Lekhwair","lat":"22.804866","lng":"55.372801","name":"Lekhwair Airport"}, 
{ "code":"OMF", "city":"Mafraq","lat":"32.3564","lng":"36.259201","name":"King Hussein Air College"}, 
{ "code":"MLX", "city":"Malatya","lat":"38.4352989197","lng":"38.0909996033","name":"Malatya Erhaç Airport"}, 
{ "code":"BAH", "city":"Manama","lat":"26.267295","lng":"50.63764","name":"Bahrain International Airport"}, 
{ "code":"MQM", "city":"Mardin","lat":"37.2233009338","lng":"40.6316986084","name":"Mardin Airport"}, 
{ "code":"MYN", "city":"Marib","lat":"15.469228","lng":"45.327272","name":"Marib Airport"}, 
{ "code":"OMM", "city":"Marmul","lat":"18.138999","lng":"55.179005","name":"Marmul Airport"}, 
{ "code":"MTZ", "city":"Masada","lat":"31.328199","lng":"35.388599","name":"Bar Yehuda Airfield"}, 
{ "code":"MSH", "city":"Masirah","lat":"20.6754","lng":"58.890499","name":"RAFO Masirah"}, 
{ "code":"MED", "city":"Medina","lat":"24.5534","lng":"39.705101","name":"Prince Mohammad Bin Abdulaziz Airport"}, 
{ "code":"SCT", "city":"Mori","lat":"12.6307","lng":"53.9058","name":"Socotra International Airport"}, 
{ "code":"UKR", "city":"Mukayras","lat":"13.9368","lng":"45.657","name":"Mukeiras Airport"}, 
{ "code":"UKH", "city":"Mukhaizna Oil Field","lat":"19.386389","lng":"56.401389","name":"Mukhaizna Airport"}, 
{ "code":"MSR", "city":"Muş","lat":"38.7477989196777","lng":"41.6612014770508","name":"Muş Airport"}, 
{ "code":"MCT", "city":"Muscat","lat":"23.5933","lng":"58.284401","name":"Muscat International Airport"}, 
{ "code":"EAM", "city":"Najran","lat":"17.611401","lng":"44.419201","name":"Najran Domestic Airport"}, 
{ "code":"NAV", "city":"Nevşehir","lat":"38.7719","lng":"34.5345","name":"Nevşehir Kapadokya Airport"}, 
{ "code":"OGU", "city":"Ordu","lat":"40.966872","lng":"38.085995","name":"Ordu–Giresun Airport"}, 
{ "code":"SAW", "city":"Pendik, Istanbul","lat":"40.898602","lng":"29.3092","name":"Istanbul Sabiha Gökçen International Airport"}, 
{ "code":"AQI", "city":"Qaisumah","lat":"28.335199","lng":"46.125099","name":"Al Qaisumah/Hafr Al Batin Airport"}, 
{ "code":"KAC", "city":"Qamishly","lat":"37.020599","lng":"41.191399","name":"Qamishli Airport"}, 
{ "code":"IHN", "city":"Qishn","lat":"15.417","lng":"51.682999","name":"Qishn Airport"}, 
{ "code":"RAH", "city":"Rafha","lat":"29.6263999938965","lng":"43.4906005859375","name":"Rafha Domestic Airport"}, 
{ "code":"RKT", "city":"Ras Al Khaimah","lat":"25.6135005950928","lng":"55.9388008117676","name":"Ras Al Khaimah International Airport"}, 
{ "code":"RUH", "city":"Riyadh","lat":"24.9576","lng":"46.698799","name":"King Khaled International Airport"}, 
{ "code":"RIY", "city":"Riyan","lat":"14.6626","lng":"49.375","name":"Riyan Mukalla International Airport"}, 
{ "code":"RZV", "city":"Rize","lat":"41.179766","lng":"40.848802","name":"Rize–Artvin Airport"}, 
{ "code":"RPN", "city":"Rosh Pina","lat":"32.980999","lng":"35.571899","name":"Rosh Pina Airport"}, 
{ "code":"SYE", "city":"Sa'dah","lat":"16.967542","lng":"43.728103","name":"Sadah Airport"}, 
{ "code":"SLL", "city":"Salalah","lat":"17.0387001037598","lng":"54.0913009643555","name":"Salalah Airport"}, 
{ "code":"SZF", "city":"Samsun","lat":"41.253988","lng":"36.567546","name":"Samsun-Çarşamba Airport"}, 
{ "code":"SAH", "city":"Sanaa","lat":"15.4763","lng":"44.2197","name":"Sanaa International Airport"}, 
{ "code":"GNY", "city":"Şanlıurfa","lat":"37.445663","lng":"38.895592","name":"Şanlıurfa GAP Airport"}, 
{ "code":"EIY", "city":"Sapir","lat":"30.6217002868652","lng":"35.2033004760742","name":"Ein Yahav Airfield"}, 
{ "code":"UAB", "city":"Sarıçam","lat":"37.002102","lng":"35.4259","name":"İncirlik Air Base"}, 
{ "code":"GXF", "city":"Seiyun","lat":"15.9661","lng":"48.7883","name":"Seiyun Hadhramaut International Airport"}, 
{ "code":"IZM", "city":"Selçuk","lat":"37.950699","lng":"27.329","name":"Selçuk Efes Airport"}, 
{ "code":"ADA", "city":"Seyhan","lat":"36.982201","lng":"35.280399","name":"Adana Şakirpaşa Airport"}, 
{ "code":"SHJ", "city":"Sharjah","lat":"25.3286","lng":"55.5172","name":"Sharjah International Airport"}, 
{ "code":"NUM", "city":"Sharma","lat":"27.927598","lng":"35.28874","name":"Neom Bay Airport"}, 
{ "code":"SHW", "city":"Sharurah","lat":"17.4669","lng":"47.121399","name":"Sharurah Domestic Airport"}, 
{ "code":"SXZ", "city":"Siirt","lat":"37.9789009094238","lng":"41.8404006958008","name":"Siirt Airport"}, 
{ "code":"NOP", "city":"Sinop","lat":"42.018313","lng":"35.071774","name":"Sinop Airport"}, 
{ "code":"XSB", "city":"Sir Bani Yas","lat":"24.283611","lng":"52.580278","name":"Sir Bani Yas Airport"}, 
{ "code":"NKT", "city":"Şırnak","lat":"37.3647","lng":"42.0582","name":"Şırnak Şerafettin Elçi Airport"}, 
{ "code":"VAS", "city":"Sivas","lat":"39.813801","lng":"36.9035","name":"Sivas Nuri Demirağ Airport"}, 
{ "code":"OHS", "city":"Sohar","lat":"24.38604","lng":"56.62541","name":"Sohar Airport"}, 
{ "code":"SOR", "city":"T2","lat":"34.390394","lng":"40.15256","name":"Al Thaurah Airport"}, 
{ "code":"TIF", "city":"Ta’if","lat":"21.483001","lng":"40.543442","name":"Ta’if Regional Airport"}, 
{ "code":"TUU", "city":"Tabuk","lat":"28.3654","lng":"36.6189","name":"Tabuk Airport"}, 
{ "code":"PMS", "city":"Tadmur","lat":"34.5574","lng":"38.316898","name":"Palmyra Airport"}, 
{ "code":"TAI", "city":"Ta'izz","lat":"13.6859998703","lng":"44.1390991211","name":"Ta'izz International Airport"}, 
{ "code":"COV", "city":"Tarsus","lat":"36.890908","lng":"35.070522","name":"Çukurova International Airport"}, 
{ "code":"TLV", "city":"Tel Aviv","lat":"32.011398","lng":"34.8867","name":"Ben Gurion International Airport"}, 
{ "code":"TTH", "city":"Thumrait","lat":"17.666","lng":"54.024601","name":"Thumrait Air Base"}, 
{ "code":"TJK", "city":"Tokat","lat":"40.32472","lng":"36.39056","name":"Tokat Airport"}, 
{ "code":"TZX", "city":"Trabzon","lat":"40.995098","lng":"39.7897","name":"Trabzon International Airport"}, 
{ "code":"KYE", "city":"Tripoli","lat":"34.589298","lng":"36.011299","name":"Rene Mouawad Air Base / Kleyate Airport"}, 
{ "code":"TUI", "city":"Turaif","lat":"31.692188","lng":"38.731544","name":"Turaif Domestic Airport"}, 
{ "code":"USQ", "city":"Uşak","lat":"38.681499","lng":"29.471701","name":"Uşak Airport"}, 
{ "code":"VAN", "city":"Van","lat":"38.4682006835937","lng":"43.3322982788086","name":"Van Ferit Melen Airport"}, 
{ "code":"WAE", "city":"Wadi Al Dawasir","lat":"20.504299","lng":"45.1996","name":"Wadi Al Dawasir Domestic Airport"}, 
{ "code":"YNB", "city":"Yanbu","lat":"24.144199","lng":"38.0634","name":"Prince Abdul Mohsin bin Abdulaziz International Airport / Yanbu Airport"}, 
{ "code":"YEI", "city":"Yenişehir","lat":"40.255199","lng":"29.562599","name":"Bursa Yenişehir Airport"}, 
{ "code":"YOT", "city":"Yotvata","lat":"29.901111","lng":"35.0675","name":"Yotvata Airfield"}, 
{ "code":"ZUL", "city":"Zilfi","lat":"26.3500003814697","lng":"44.8330001831055","name":"Zilfi Airport"}, 
{ "code":"ONQ", "city":"Zonguldak","lat":"41.506401","lng":"32.0886","name":"Zonguldak Çaycuma Airport"}
]