[
    {"code": "YYC","city": "Calgary","country": "Canada","lat": 51.1225,"lng": -114.02,"name": "Calgary International Airport"},
    {"code": "YEG","city": "Edmonton","country": "Canada","lat": 53.3097,"lng": -113.5803,"name": "Edmonton International Airport"},
    {"code": "YHZ","city": "Halifax","country": "Canada","lat": 44.8808,"lng": -63.5086,"name": "Halifax Stanfield International Airport"},
    {"code": "YHU","city": "Montreal","country": "Canada","lat": 45.5175,"lng": -73.4169,"name": "Montréal-Saint-Hubert Longueuil Airport"},
    {"code": "YUL","city": "Montreal","country": "Canada","lat": 45.4647,"lng": -73.7453,"name": "Montréal-Pierre Elliott Trudeau International Airport"},
    {"code": "YOW","city": "Ottawa","country": "Canada","lat": 45.3192,"lng": -75.6692,"name": "Ottawa Macdonald-Cartier International Airport"},
    {"code": "YQB","city": "Quebec City","country": "Canada","lat": 46.7911,"lng": -71.3933,"name": "Québec City Jean Lesage International Airport"},
    {"code": "YKZ","city": "Toronto","country": "Canada","lat": 43.8619,"lng": -79.3747,"name": "Buttonville Municipal Airport"},
    {"code": "YTZ","city": "Toronto","country": "Canada","lat": 43.6275,"lng": -79.3962,"name": "Billy Bishop Toronto City Airport"},
    {"code": "YYZ","city": "Toronto","country": "Canada","lat": 43.6777,"lng": -79.6248,"name": "Toronto Pearson International Airport"},
    {"code": "YVR","city": "Vancouver","country": "Canada","lat": 49.1967,"lng": -123.1815,"name": "Vancouver International Airport"},
    {"code": "YWG","city": "Winnipeg","country": "Canada","lat": 49.91,"lng": -97.2394,"name": "Winnipeg James Armstrong Richardson International Airport"},
    {"code": "ABQ","city": "Albuquerque","country": "United States","lat": 35.0402,"lng": -106.6092,"name": "Albuquerque International Sunport"},
    {"code": "ATL","city": "Atlanta","country": "United States","lat": 33.6407,"lng": -84.4277,"name": "Hartsfield-Jackson Atlanta International Airport"},
    {"code": "PDK","city": "Atlanta","country": "United States","lat": 33.8756,"lng": -84.302,"name": "DeKalb-Peachtree Airport"},
    {"code": "BWI","city": "Baltimore","country": "United States","lat": 39.1754,"lng": -76.6682,"name": "Baltimore/Washington International Airport"},
    {"code": "BIL","city": "Billings","country": "United States","lat": 45.8077,"lng": -108.5428,"name": "Billings Logan International Airport"},
    {"code": "BHM","city": "Birmingham","country": "United States","lat": 33.5629,"lng": -86.7535,"name": "Birmingham-Shuttlesworth International Airport"},
    {"code": "BOI","city": "Boise","country": "United States","lat": 43.5644,"lng": -116.2228,"name": "Boise Airport"},
    {"code": "BED","city": "Boston","country": "United States","lat": 42.47,"lng": -71.2889,"name": "Laurence G. Hanscom Field"},
    {"code": "BOS","city": "Boston","country": "United States","lat": 42.3656,"lng": -71.0096,"name": "Logan International Airport"},
    {"code": "BUR","city": "Burbank","country": "United States","lat": 34.2007,"lng": -118.3585,"name": "Hollywood Burbank Airport"},
    {"code": "BTV","city": "Burlington","country": "United States","lat": 44.4719,"lng": -73.1531,"name": "Burlington International Airport"},
    {"code": "CHS","city": "Charleston","country": "United States","lat": 32.8986,"lng": -80.0405,"name": "Charleston International Airport"},
    {"code": "CRW","city": "Charleston","country": "United States","lat": 38.3731,"lng": -81.5932,"name": "Charleston Yeager Airport"},
    {"code": "CLT","city": "Charlotte","country": "United States","lat": 35.2144,"lng": -80.9431,"name": "Charlotte Douglas International Airport"},
    {"code": "CYS","city": "Cheyenne","country": "United States","lat": 41.1557,"lng": -104.8119,"name": "Cheyenne Regional Airport"},
    {"code": "MDW","city": "Chicago","country": "United States","lat": 41.7868,"lng": -87.7524,"name": "Midway International Airport"},
    {"code": "ORD","city": "Chicago","country": "United States","lat": 41.9742,"lng": -87.9073,"name": "O'Hare International Airport"},
    {"code": "PWK","city": "Chicago","country": "United States","lat": 42.1142,"lng": -87.9015,"name": "Chicago Executive Airport"},
    {"code": "CVG","city": "Cincinnati","country": "United States","lat": 39.0488,"lng": -84.6678,"name": "Cincinnati/Northern Kentucky International Airport"},
    {"code": "CLE","city": "Cleveland","country": "United States","lat": 41.4117,"lng": -81.8498,"name": "Cleveland Hopkins International Airport"},
    {"code": "CAE","city": "Columbia","country": "United States","lat": 33.9388,"lng": -81.1195,"name": "Columbia Metropolitan Airport"},
    {"code": "CMH","city": "Columbus","country": "United States","lat": 39.998,"lng": -82.8919,"name": "John Glenn Columbus International Airport"},
    {"code": "ADS","city": "Dallas","country": "United States","lat": 32.9686,"lng": -96.8364,"name": "Addison Airport"},
    {"code": "DAL","city": "Dallas","country": "United States","lat": 32.8471,"lng": -96.8518,"name": "Dallas Love Field"},
    {"code": "DFW","city": "Dallas","country": "United States","lat": 32.8998,"lng": -97.0403,"name": "Dallas/Fort Worth International Airport"},
    {"code": "APA","city": "Denver","country": "United States","lat": 39.5701,"lng": -104.8493,"name": "Centennial Airport"},
    {"code": "DEN","city": "Denver","country": "United States","lat": 39.8561,"lng": -104.6737,"name": "Denver International Airport"},
    {"code": "DSM","city": "Des Moines","country": "United States","lat": 41.534,"lng": -93.6631,"name": "Des Moines International Airport"},
    {"code": "DTW","city": "Detroit","country": "United States","lat": 42.2124,"lng": -83.3534,"name": "Detroit Metropolitan Wayne County Airport"},
    {"code": "FAR","city": "Fargo","country": "United States","lat": 46.9207,"lng": -96.8158,"name": "Hector International Airport"},
    {"code": "FLL","city": "Fort Lauderdale","country": "United States","lat": 26.0742,"lng": -80.1506,"name": "Fort Lauderdale-Hollywood International Airport"},
    {"code": "BDL","city": "Hartford","country": "United States","lat": 41.9389,"lng": -72.6831,"name": "Bradley International Airport"},
    {"code": "HNL","city": "Honolulu","country": "United States","lat": 21.3099,"lng": -157.8581,"name": "Daniel K. Inouye International Airport"},
    {"code": "IND","city": "Indianapolis","country": "United States","lat": 39.7173,"lng": -86.2944,"name": "Indianapolis International Airport"},
    {"code": "JAN","city": "Jackson","country": "United States","lat": 32.3112,"lng": -90.0759,"name": "Jackson-Medgar Wiley Evers International Airport"},
    {"code": "MCI","city": "Kansas City","country": "United States","lat": 39.2976,"lng": -94.7139,"name": "Kansas City International Airport"},
    {"code": "HDN","city": "Las Vegas","country": "United States","lat": 36.2377,"lng": -115.1344,"name": "Henderson Executive Airport"},
    {"code": "LAS","city": "Las Vegas","country": "United States","lat": 36.084,"lng": -115.1537,"name": "McCarran International Airport"},
    {"code": "LIT","city": "Little Rock","country": "United States","lat": 34.7294,"lng": -92.2243,"name": "Bill and Hillary Clinton National Airport"},
    {"code": "LGB","city": "Long Beach","country": "United States","lat": 33.8177,"lng": -118.1516,"name": "Long Beach Airport"},
    {"code": "LAX","city": "Los Angeles","country": "United States","lat": 33.9425,"lng": -118.4081,"name": "Los Angeles International Airport"},
    {"code": "SDF","city": "Louisville","country": "United States","lat": 38.1744,"lng": -85.7364,"name": "Louisville Muhammad Ali International Airport"},
    {"code": "MSN","city": "Madison","country": "United States","lat": 43.1399,"lng": -89.3375,"name": "Dane County Regional Airport"},
    {"code": "MHT","city": "Manchester","country": "United States","lat": 42.9326,"lng": -71.4357,"name": "Manchester-Boston Regional Airport"},
    {"code": "MEM","city": "Memphis","country": "United States","lat": 35.0424,"lng": -89.9767,"name": "Memphis International Airport"},
    {"code": "MIA","city": "Miami","country": "United States","lat": 25.7959,"lng": -80.2871,"name": "Miami International Airport"},
    {"code": "OPF","city": "Miami","country": "United States","lat": 25.907,"lng": -80.2784,"name": "Opa-locka Executive Airport"},
    {"code": "TMB","city": "Miami","country": "United States","lat": 25.6479,"lng": -80.4328,"name": "Kendall-Tamiami Executive Airport"},
    {"code": "MKE","city": "Milwaukee","country": "United States","lat": 42.9472,"lng": -87.8966,"name": "Milwaukee Mitchell International Airport"},
    {"code": "FCM","city": "Minneapolis","country": "United States","lat": 45.1275,"lng": -93.2117,"name": "Flying Cloud Airport"},
    {"code": "MSP","city": "Minneapolis","country": "United States","lat": 44.8848,"lng": -93.2223,"name": "Minneapolis-Saint Paul International Airport"},
    {"code": "BNA","city": "Nashville","country": "United States","lat": 36.1245,"lng": -86.6782,"name": "Nashville International Airport"},
    {"code": "MSY","city": "New Orleans","country": "United States","lat": 29.9934,"lng": -90.2581,"name": "Louis Armstrong New Orleans International Airport"},
    {"code": "EWR","city": "New York","country": "United States","lat": 40.6895,"lng": -74.1745,"name": "Newark Liberty International Airport"},
    {"code": "JFK","city": "New York","country": "United States","lat": 40.6413,"lng": -73.7781,"name": "John F. Kennedy International Airport"},
    {"code": "LGA","city": "New York","country": "United States","lat": 40.7769,"lng": -73.874,"name": "LaGuardia Airport"},
    {"code": "ORF","city": "Norfolk","country": "United States","lat": 36.8946,"lng": -76.2012,"name": "Norfolk International Airport"},
    {"code": "OKC","city": "Oklahoma City","country": "United States","lat": 35.3931,"lng": -97.6007,"name": "Will Rogers World Airport"},
    {"code": "OMA","city": "Omaha","country": "United States","lat": 41.3032,"lng": -95.8941,"name": "Eppley Airfield"},
    {"code": "SNA","city": "Orange County","country": "United States","lat": 33.6757,"lng": -117.8683,"name": "John Wayne Airport"},
    {"code": "PAO","city": "Palo Alto","country": "United States","lat": 37.4611,"lng": -122.115,"name": "Palo Alto Airport"},
    {"code": "PHL","city": "Philadelphia","country": "United States","lat": 39.8729,"lng": -75.2437,"name": "Philadelphia International Airport"},
    {"code": "PNE","city": "Philadelphia","country": "United States","lat": 40.0822,"lng": -75.0106,"name": "Northeast Philadelphia Airport"},
    {"code": "PHX","city": "Phoenix","country": "United States","lat": 33.4484,"lng": -112.074,"name": "Phoenix Sky Harbor International Airport"},
    {"code": "PDX","city": "Portland","country": "United States","lat": 45.5898,"lng": -122.5951,"name": "Portland International Airport"},
    {"code": "PWM","city": "Portland","country": "United States","lat": 43.6462,"lng": -70.3093,"name": "Portland International Jetport"},
    {"code": "PVD","city": "Providence","country": "United States","lat": 41.724,"lng": -71.4281,"name": "Rhode Island T. F. Green International Airport"},
    {"code": "RDU","city": "Raleigh","country": "United States","lat": 35.8777,"lng": -78.7875,"name": "Raleigh-Durham International Airport"},
    {"code": "RIC","city": "Richmond","country": "United States","lat": 37.5052,"lng": -77.3197,"name": "Richmond International Airport"},
    {"code": "SLC","city": "Salt Lake City","country": "United States","lat": 40.7884,"lng": -111.9778,"name": "Salt Lake City International Airport"},
    {"code": "SFO","city": "San Francisco","country": "United States","lat": 37.6213,"lng": -122.379,"name": "San Francisco International Airport"},
    {"code": "SJC","city": "San Jose","country": "United States","lat": 37.3626,"lng": -121.9291,"name": "Norman Y. Mineta San José International Airport"},
    {"code": "SDL","city": "Scottsdale","country": "United States","lat": 33.6228,"lng": -111.9105,"name": "Scottsdale Airport"},
    {"code": "BFI","city": "Seattle","country": "United States","lat": 47.53,"lng": -122.3019,"name": "Boeing Field"},
    {"code": "SEA","city": "Seattle","country": "United States","lat": 47.4502,"lng": -122.3088,"name": "Seattle-Tacoma International Airport"},
    {"code": "FSD","city": "Sioux Falls","country": "United States","lat": 43.582,"lng": -96.742,"name": "Joe Foss Field"},
    {"code": "STL","city": "St. Louis","country": "United States","lat": 38.7487,"lng": -90.37,"name": "St. Louis Lambert International Airport"},
    {"code": "TEB","city": "Teterboro","country": "United States","lat": 40.8501,"lng": -74.0606,"name": "Teterboro Airport"},
    {"code": "TUL","city": "Tulsa","country": "United States","lat": 36.1984,"lng": -95.8881,"name": "Tulsa International Airport"},
    {"code": "VNY","city": "Van Nuys","country": "United States","lat": 34.2098,"lng": -118.4898,"name": "Van Nuys Airport"},
    {"code": "DCA","city": "Washington","country": "United States","lat": 38.8521,"lng": -77.0377,"name": "Ronald Reagan Washington National Airport"},
    {"code": "IAD","city": "Washington","country": "United States","lat": 38.9445,"lng": -77.4558,"name": "Washington Dulles International Airport"},
    {"code": "PBI","city": "West Palm Beach","country": "United States","lat": 26.6832,"lng": -80.0956,"name": "Palm Beach International Airport"},
    {"code": "HPN","city": "White Plains","country": "United States","lat": 41.067,"lng": -73.7076,"name": "Westchester County Airport"},
    {"code": "ICT","city": "Wichita","country": "United States","lat": 37.6499,"lng": -97.4331,"name": "Wichita Dwight D. Eisenhower National Airport"},
    {"code": "ILG","city": "Wilmington","country": "United States","lat": 39.6787,"lng": -75.6068,"name": "New Castle Airport"},
    {"code": "ANC","city": "Anchorage","country": "United States (Alaska)","lat": 61.2181,"lng": -149.9003,"name": "Ted Stevens Anchorage International Airport"},
    {"code": "FAI","city": "Fairbanks","country": "United States (Alaska)","lat": 64.8378,"lng": -147.8564,"name": "Fairbanks International Airport"},
    {"code": "JNU","city": "Juneau","country": "United States (Alaska)","lat": 58.355,"lng": -134.5764,"name": "Juneau International Airport"},
    {"code": "KTN","city": "Ketchikan","country": "United States (Alaska)","lat": 55.3556,"lng": -131.7136,"name": "Ketchikan International Airport"}
]