[
{ "code":"JEG", "city":"Aasiaat","lat":"68.721802","lng":"-52.784698","name":"Aasiaat Airport"}, 
{ "code":"AEY", "city":"Akureyri","lat":"65.656573","lng":"-18.072018","name":"Akureyri Airport"}, 
{ "code":"BJD", "city":"Bakkafjörður","lat":"66.0218963623047","lng":"-14.8243999481201","name":"Bakkafjörður Airport"}, 
{ "code":"BIU", "city":"Bildudalur","lat":"65.641296","lng":"-23.5462","name":"Bildudalur Airport"}, 
{ "code":"BLO", "city":"Blönduós","lat":"65.644997","lng":"-20.2875","name":"Blönduós Airport"}, 
{ "code":"BGJ", "city":"Borgarfjörður eystri","lat":"65.516769","lng":"-13.81578","name":"Borgarfjörður eystri Airport"}, 
{ "code":"BXV", "city":"Breiðdalsvík","lat":"64.790037","lng":"-14.043927","name":"Breiðdalsvík Airport"}, 
{ "code":"DJU", "city":"Djúpivogur","lat":"64.642372","lng":"-14.277297","name":"Djúpivogur Airport"}, 
{ "code":"EGS", "city":"Egilsstaðir","lat":"65.2833023071289","lng":"-14.4013996124268","name":"Egilsstaðir Airport"}, 
{ "code":"FAG", "city":"Fagurhólsmýri","lat":"63.874699","lng":"-16.6411","name":"Fagurhólsmýri Airport"}, 
{ "code":"FAS", "city":"Fáskrúðsfjörður","lat":"64.931456","lng":"-14.047957","name":"Fáskrúðsfjörður Airport"}, 
{ "code":"FLI", "city":"Flateyri","lat":"66.0141804294","lng":"-23.4416913986","name":"Holt Airport"}, 
{ "code":"GJR", "city":"Gjögur","lat":"65.9953","lng":"-21.3269","name":"Gjögur Airport"}, 
{ "code":"GRY", "city":"Grímsey","lat":"66.5458","lng":"-18.0173","name":"Grímsey Airport"}, 
{ "code":"GUU", "city":"Grundarfjörður","lat":"64.991402","lng":"-23.224701","name":"Grundarfjörður Airport"}, 
{ "code":"HFN", "city":"Höfn","lat":"64.295601","lng":"-15.2272","name":"Hornafjörður Airport"}, 
{ "code":"HVK", "city":"Hólmavík","lat":"65.704697","lng":"-21.6964","name":"Hólmavík Airport"}, 
{ "code":"HZK", "city":"Húsavík","lat":"65.952301","lng":"-17.426001","name":"Húsavík Airport"}, 
{ "code":"JAV", "city":"Ilulissat","lat":"69.243202","lng":"-51.057098","name":"Ilulissat Airport"}, 
{ "code":"IFJ", "city":"Ísafjörður","lat":"66.058098","lng":"-23.1353","name":"Ísafjörður Airport"}, 
{ "code":"SFJ", "city":"Kangerlussuaq","lat":"67.010446","lng":"-50.715294","name":"Kangerlussuaq Airport"}, 
{ "code":"OPA", "city":"Kópasker","lat":"66.310799","lng":"-16.4667","name":"Kópasker Airport"}, 
{ "code":"KUS", "city":"Kulusuk","lat":"65.573601","lng":"-37.1236","name":"Kulusuk Airport"}, 
{ "code":"JSU", "city":"Maniitsoq","lat":"65.412498","lng":"-52.9394","name":"Maniitsoq Airport"}, 
{ "code":"MVA", "city":"Myvatn","lat":"65.6558","lng":"-16.9181","name":"Reykjahlíð Airport"}, 
{ "code":"UAK", "city":"Narsarsuaq","lat":"61.1605","lng":"-45.425999","name":"Narsarsuaq Airport"}, 
{ "code":"CNP", "city":"Neerlerit Inaat","lat":"70.743103","lng":"-22.650499","name":"Neerlerit Inaat Airport"}, 
{ "code":"NOR", "city":"Norðfjörður","lat":"65.131897","lng":"-13.7464","name":"Norðfjörður Airport"}, 
{ "code":"GOH", "city":"Nuuk","lat":"64.191066","lng":"-51.67914","name":"Nuuk Airport"}, 
{ "code":"OFJ", "city":"Ólafsfjörður","lat":"66.083298","lng":"-18.6667","name":"Ólafsfjörður Airport"}, 
{ "code":"HLO", "city":"Onundarfjörður","lat":"66.0500030517578","lng":"-23.6961002349854","name":"Ingjaldssanður Airport"}, 
{ "code":"JFR", "city":"Paamiut","lat":"62.014736","lng":"-49.670937","name":"Paamiut Airport"}, 
{ "code":"PFJ", "city":"Patreksfjörður","lat":"65.555801","lng":"-23.965","name":"Patreksfjörður Airport"}, 
{ "code":"THU", "city":"Pituffik","lat":"76.531197","lng":"-68.703201","name":"Pituffik Space Base"}, 
{ "code":"NAQ", "city":"Qaanaaq","lat":"77.488602","lng":"-69.388702","name":"Qaanaaq Airport"}, 
{ "code":"RFN", "city":"Raufarhöfn","lat":"66.406403","lng":"-15.9183","name":"Raufarhöfn Airport"}, 
{ "code":"RHA", "city":"Reykhólar","lat":"65.4526290893555","lng":"-22.2061157226562","name":"Reykhólar Airport"}, 
{ "code":"KEF", "city":"Reykjavík","lat":"63.985001","lng":"-22.6056","name":"Keflavik International Airport"}, 
{ "code":"RKV", "city":"Reykjavík","lat":"64.128732","lng":"-21.93759","name":"Reykjavík Domestic Airport"}, 
{ "code":"OLI", "city":"Rif","lat":"64.9114","lng":"-23.823099","name":"Rif Airport"}, 
{ "code":"SAK", "city":"Sauðárkrókur","lat":"65.7316970825","lng":"-19.5727996826","name":"Sauðárkrókur Airport"}, 
{ "code":"SIJ", "city":"Siglufjörður","lat":"66.137847","lng":"-18.908157","name":"Siglufjörður Airport"}, 
{ "code":"JHS", "city":"Sisimiut","lat":"66.951302","lng":"-53.729301","name":"Sisimiut Airport"}, 
{ "code":"SYK", "city":"Stykkishólmur","lat":"65.058851","lng":"-22.764616","name":"Stykkishólmur Airport"}, 
{ "code":"TEY", "city":"Þingeyri","lat":"65.8703","lng":"-23.559999","name":"Þingeyri Airport"}, 
{ "code":"THO", "city":"Þórshöfn","lat":"66.218498","lng":"-15.3356","name":"Þórshöfn Airport"}, 
{ "code":"JUV", "city":"Upernavik","lat":"72.790199","lng":"-56.1306","name":"Upernavik Airport"}, 
{ "code":"JQA", "city":"Uummannaq","lat":"70.7342","lng":"-52.696201","name":"Qaarsut Airport"}, 
{ "code":"FAE", "city":"Vágar","lat":"62.063256","lng":"-7.275782","name":"Vágar Airport"}, 
{ "code":"VEY", "city":"Vestmannaeyjar","lat":"63.4243011474609","lng":"-20.2789001464844","name":"Vestmannaeyjar Airport"}, 
{ "code":"VPN", "city":"Vopnafjörður","lat":"65.720596","lng":"-14.8506","name":"Vopnafjörður Airport"}

]