[
    {"code": "ADL","city": "Adelaide","country": "Australia","lat": -34.947,"lng": 138.5306,"name": "Adelaide Airport"},
    {"code": "BNE","city": "Brisbane","country": "Australia","lat": -27.3942,"lng": 153.1218,"name": "Brisbane Airport"},
    {"code": "CNS","city": "Cairns","country": "Australia","lat": -16.8858,"lng": 145.7781,"name": "Cairns Airport"},
    {"code": "DRW","city": "Darwin","country": "Australia","lat": -12.4167,"lng": 130.8833,"name": "Darwin International Airport"},
    {"code": "MEL","city": "Melbourne","country": "Australia","lat": -37.669,"lng": 144.841,"name": "Melbourne Airport"},
    {"code": "PER","city": "Perth","country": "Australia","lat": -31.9403,"lng": 115.9669,"name": "Perth Airport"},
    {"code": "SYD","city": "Sydney","country": "Australia","lat": -33.9399,"lng": 151.1753,"name": "Kingsford Smith Airport"},
    {"code": "AKL","city": "Auckland","country": "New Zealand","lat": -37.0082,"lng": 174.785,"name": "Auckland Airport"},
    {"code": "CHC","city": "Christchurch","country": "New Zealand","lat": -43.4894,"lng": 172.532,"name": "Christchurch Airport"},
    {"code": "ZQN","city": "Queenstown","country": "New Zealand","lat": -45.0211,"lng": 168.7392,"name": "Queenstown Airport"},
    {"code": "WLG","city": "Wellington","country": "New Zealand","lat": -41.3276,"lng": 174.8052,"name": "Wellington Airport"}
]