[
{ "code":"ABG", "city":"Abingdon Downs","lat":"-17.608814","lng":"143.183531","name":"Abingdon Downs Airport"}, 
{ "code":"ADL", "city":"Adelaide","lat":"-34.947512","lng":"138.533393","name":"Adelaide International Airport"}, 
{ "code":"AFR", "city":"Afore","lat":"-9.13867","lng":"148.390701","name":"Afore Airstrip"}, 
{ "code":"AUP", "city":"Agaun","lat":"-9.927715","lng":"149.389951","name":"Agaun Airport"}, 
{ "code":"AGW", "city":"Agnew","lat":"-12.1456","lng":"142.149369","name":"Agnew Airport"}, 
{ "code":"AIH", "city":"Aiambak","lat":"-7.34277777778","lng":"141.2675","name":"Aiambak Airport"}, 
{ "code":"AIE", "city":"Aiome","lat":"-5.145699978","lng":"144.7307003","name":"Aiome Airport"}, 
{ "code":"ATP", "city":"Aitape","lat":"-3.143611","lng":"142.346806","name":"Aitape Airport"}, 
{ "code":"TAJ", "city":"Aitape","lat":"-3.198192","lng":"142.430964","name":"Tadji Airport"}, 
{ "code":"AYU", "city":"Aiyura Valley","lat":"-6.33805555556","lng":"145.904166667","name":"Aiyura Airport"}, 
{ "code":"ALH", "city":"Albany","lat":"-34.9432983398437","lng":"117.80899810791","name":"Albany Airport"}, 
{ "code":"WOL", "city":"Albion Park Rail","lat":"-34.5611","lng":"150.789001","name":"Shellharbour Airport"}, 
{ "code":"ALR", "city":"Alexandra","lat":"-45.210495","lng":"169.371113","name":"Alexandra Aerodrome"}, 
{ "code":"ASP", "city":"Alice Springs","lat":"-23.806588","lng":"133.903427","name":"Alice Springs Airport"}, 
{ "code":"ABH", "city":"Alpha","lat":"-23.652849","lng":"146.582668","name":"Alpha Airport"}, 
{ "code":"LNH", "city":"Alpurrurulam","lat":"-20.9807","lng":"137.9178","name":"Lake Nash Airport"}, 
{ "code":"AYD", "city":"Alroy Downs","lat":"-19.2908","lng":"136.078995","name":"Alroy Downs Airport"}, 
{ "code":"AMU", "city":"Amanab","lat":"-3.586","lng":"141.214333333","name":"Amanab Airport"}, 
{ "code":"KRJ", "city":"Amboin","lat":"-4.59666666667","lng":"143.5225","name":"Karawari Airstrip"}, 
{ "code":"AUJ", "city":"Ambunti","lat":"-4.21566666667","lng":"142.823166667","name":"Ambunti Airport"}, 
{ "code":"ADO", "city":"Andamooka","lat":"-30.438299","lng":"137.136993","name":"Andamooka Airport"}, 
{ "code":"ADC", "city":"Andekombe","lat":"-7.13722222222","lng":"145.744722222","name":"Andakombe Airport"}, 
{ "code":"AGG", "city":"Angoram","lat":"-4.057077","lng":"144.073841","name":"Angoram Airport"}, 
{ "code":"AKG", "city":"Anguganak","lat":"-3.560504","lng":"142.217307","name":"Anguganak Airport"}, 
{ "code":"ANZ", "city":"Angus Downs Station","lat":"-25.0325","lng":"132.2748","name":"Angus Downs Airport"}, 
{ "code":"TTX", "city":"Anjo Peninsula","lat":"-14.089699745178","lng":"126.3809967041","name":"Truscott-Mungalalu Airport"}, 
{ "code":"APW", "city":"Apia","lat":"-13.8299999237061","lng":"-172.007995605469","name":"Faleolo International Airport"}, 
{ "code":"FGI", "city":"Apia","lat":"-13.849167","lng":"-171.739866","name":"Fagali'i Airport"}, 
{ "code":"APR", "city":"April River","lat":"-4.67666666667","lng":"142.540138889","name":"April River Airport"}, 
{ "code":"ARY", "city":"Ararat","lat":"-37.309978","lng":"142.988688","name":"Ararat Airport"}, 
{ "code":"RAW", "city":"Arawa","lat":"-6.220556","lng":"155.571389","name":"Arawa Airport"}, 
{ "code":"ARM", "city":"Armidale","lat":"-30.5280990601","lng":"151.617004395","name":"Armidale Airport"}, 
{ "code":"AAU", "city":"Asau","lat":"-13.505132","lng":"-172.627888","name":"Asau Airport"}, 
{ "code":"AEK", "city":"Aseki","lat":"-7.350805","lng":"146.193994","name":"Aseki Airport"}, 
{ "code":"ASG", "city":"Ashburton","lat":"-43.903301","lng":"171.796997","name":"Ashburton Airport"}, 
{ "code":"ABP", "city":"Atkamba Mission","lat":"-6.06462","lng":"141.095173","name":"Atkamba Airport"}, 
{ "code":"GRL", "city":"Au","lat":"-7.980713","lng":"147.213461","name":"Garasa Airport"}, 
{ "code":"AUI", "city":"Aua Island","lat":"-1.46055555556","lng":"143.064722222","name":"Aua Island Airport"}, 
{ "code":"AKL", "city":"Auckland","lat":"-37.01199","lng":"174.786331","name":"Auckland International Airport"}, 
{ "code":"UAE", "city":"Aue","lat":"-6.229978","lng":"144.664181","name":"Mount Aue Airport"}, 
{ "code":"AUV", "city":"Aumo","lat":"-5.73111111111","lng":"148.445277778","name":"Aumo Airport"}, 
{ "code":"AUU", "city":"Aurukun","lat":"-13.354019","lng":"141.720028","name":"Aurukun Airport"}, 
{ "code":"AVG", "city":"Auvergne Station","lat":"-15.690555","lng":"130.008818","name":"Auvergne Airport"}, 
{ "code":"AWB", "city":"Awaba","lat":"-8.013414","lng":"142.752099","name":"Awaba Airport"}, 
{ "code":"KAT", "city":"Awanui","lat":"-35.069837","lng":"173.287053","name":"Kaitaia Airport"}, 
{ "code":"AWR", "city":"Awar","lat":"-4.122278","lng":"144.853292","name":"Awar Airport (unusable)"}, 
{ "code":"AYR", "city":"Ayr","lat":"-19.595832","lng":"147.324495","name":"Ayr Airport"}, 
{ "code":"MKN", "city":"Babase Island","lat":"-4.02343055556","lng":"153.657277778","name":"Malekolon Airport"}, 
{ "code":"BDD", "city":"Badu Island","lat":"-10.14955","lng":"142.173665","name":"Badu Island Airport"}, 
{ "code":"VMU", "city":"Baimuru","lat":"-7.49686002731","lng":"144.819900513","name":"Baimuru Airport"}, 
{ "code":"HYF", "city":"Bainyik","lat":"-3.69838","lng":"143.057902","name":"Hayfields Airport"}, 
{ "code":"BSJ", "city":"Bairnsdale","lat":"-37.887539","lng":"147.569379","name":"Bairnsdale Airport"}, 
{ "code":"BQW", "city":"Balgo","lat":"-20.1483","lng":"127.973","name":"Balgo Hill Airport"}, 
{ "code":"OPU", "city":"Balimo","lat":"-8.05000019073","lng":"142.932998657","name":"Balimo Airport"}, 
{ "code":"BNK", "city":"Ballina","lat":"-28.833236","lng":"153.561471","name":"Ballina Byron Gateway Airport"}, 
{ "code":"ABM", "city":"Bamaga","lat":"-10.946194","lng":"142.455081","name":"Northern Peninsula Airport"}, 
{ "code":"BCP", "city":"Bambu","lat":"-5.86361111111","lng":"146.4925","name":"Bambu Airport"}, 
{ "code":"BMZ", "city":"Bamu","lat":"-7.8485","lng":"143.2433","name":"Bamu Airport"}, 
{ "code":"BYX", "city":"Baniyala","lat":"-13.1981","lng":"136.227005","name":"Baniyala Airport"}, 
{ "code":"BPD", "city":"Bapi","lat":"-7.74361111111","lng":"147.020555556","name":"Bapi Airstrip"}, 
{ "code":"BCI", "city":"Barcaldine","lat":"-23.566268","lng":"145.302086","name":"Barcaldine Airport"}, 
{ "code":"NMP", "city":"Basalt","lat":"-19.2","lng":"145.773","name":"New Moon Airport"}, 
{ "code":"BHS", "city":"Bathurst","lat":"-33.406817","lng":"149.651161","name":"Bathurst Airport"}, 
{ "code":"BEU", "city":"Bedourie","lat":"-24.3461","lng":"139.460007","name":"Bedourie Airport"}, 
{ "code":"BLN", "city":"Benalla","lat":"-36.551899","lng":"146.007004","name":"Benalla Airport"}, 
{ "code":"BSP", "city":"Bensbach","lat":"-8.85805555556","lng":"141.259444444","name":"Bensbach Airport"}, 
{ "code":"BWP", "city":"Bewani","lat":"-3.02166666667","lng":"141.165277778","name":"Bewani Airport"}, 
{ "code":"BAA", "city":"Bialla, Matalilu, Ewase","lat":"-5.33056020737","lng":"151.007995605","name":"Bialla Airport"}, 
{ "code":"BPK", "city":"Biangabip","lat":"-5.526389","lng":"141.744583","name":"Biangabip Airport"}, 
{ "code":"BRP", "city":"Biaru","lat":"-7.6693","lng":"146.7594","name":"Biaru Airport"}, 
{ "code":"BCZ", "city":"Bickerton Island","lat":"-13.7808333333","lng":"136.201666667","name":"Milyakburra Airport"}, 
{ "code":"THG", "city":"Biloela","lat":"-24.494863","lng":"150.577967","name":"Thangool Airport"}, 
{ "code":"ZBL", "city":"Biloela","lat":"-24.320816","lng":"150.509627","name":"Biloela Airport"}, 
{ "code":"XBN", "city":"Biniguni","lat":"-9.6425","lng":"149.303889","name":"Biniguni Airport"}, 
{ "code":"BKQ", "city":"Blackall","lat":"-24.431678","lng":"145.429716","name":"Blackall Airport"}, 
{ "code":"BHE", "city":"Blenheim","lat":"-41.5182991027832","lng":"173.869995117187","name":"Woodbourne Airport"}, 
{ "code":"BNV", "city":"Boana","lat":"-6.426631","lng":"146.826697","name":"Boana Airport"}, 
{ "code":"BOV", "city":"Boang Island","lat":"-3.3834","lng":"153.2812","name":"Boang Airport"}, 
{ "code":"BNM", "city":"Bodinumu","lat":"-9.10777777778","lng":"147.666722222","name":"Bodinumu Airport"}, 
{ "code":"GIC", "city":"Boigu Island","lat":"-9.23278","lng":"142.218002","name":"Boigu Island Airport"}, 
{ "code":"BMH", "city":"Bomai","lat":"-6.37316666667","lng":"144.637","name":"Bomai Airport"}, 
{ "code":"BOT", "city":"Bosset","lat":"-7.237257","lng":"141.1063222","name":"Bosset Airport"}, 
{ "code":"ZBO", "city":"Bowen","lat":"-20.017999","lng":"148.215245","name":"Bowen Airport"}, 
{ "code":"BRH", "city":"Brahman Mission","lat":"-5.741032","lng":"145.378518","name":"Brahman Airstrip"}, 
{ "code":"BHT", "city":"Brighton Downs","lat":"-23.363333","lng":"141.562778","name":"Brighton Downs Airport"}, 
{ "code":"BNE", "city":"Brisbane","lat":"-27.3841991424561","lng":"153.117004394531","name":"Brisbane International Airport"}, 
{ "code":"KGI", "city":"Broadwood","lat":"-30.791543","lng":"121.464586","name":"Kalgoorlie Boulder Airport"}, 
{ "code":"BHQ", "city":"Broken Hill","lat":"-32.0013999939","lng":"141.472000122","name":"Broken Hill Airport"}, 
{ "code":"BME", "city":"Broome","lat":"-17.948789","lng":"122.227407","name":"Broome International Airport"}, 
{ "code":"UBI", "city":"Buin","lat":"-6.72916666667","lng":"155.683333333","name":"Buin Airport"}, 
{ "code":"BUA", "city":"Buka Island","lat":"-5.4223198890686","lng":"154.673004150391","name":"Buka Airport"}, 
{ "code":"FIN", "city":"Buki","lat":"-6.621750109","lng":"147.85405","name":"Finschhafen Airport"}, 
{ "code":"BUL", "city":"Bulolo","lat":"-7.21628667141","lng":"146.649541855","name":"Bulolo Airport"}, 
{ "code":"BDB", "city":"Bundaberg","lat":"-24.905039","lng":"152.322612","name":"Bundaberg Airport"}, 
{ "code":"BNT", "city":"Bundi","lat":"-5.74222222222","lng":"145.2275","name":"Bundi Airport"}, 
{ "code":"BXZ", "city":"Bunsil - Umboi Island","lat":"-5.7243","lng":"147.8667","name":"Bunsil Airport"}, 
{ "code":"LEV", "city":"Bureta","lat":"-17.7110996246","lng":"178.759002686","name":"Levuka Airfield"}, 
{ "code":"BWT", "city":"Burnie","lat":"-40.997039","lng":"145.726","name":"Wynyard Airport"}, 
{ "code":"NLK", "city":"Burnt Pine","lat":"-29.041887","lng":"167.939616","name":"Norfolk Island International Airport"}, 
{ "code":"BQB", "city":"Busselton","lat":"-33.688423","lng":"115.401596","name":"Busselton Margaret River Regional Airport"}, 
{ "code":"CNS", "city":"Cairns","lat":"-16.878921","lng":"145.74948","name":"Cairns International Airport"}, 
{ "code":"CUD", "city":"Caloundra","lat":"-26.80336","lng":"153.104975","name":"Caloundra Airport"}, 
{ "code":"CBR", "city":"Canberra","lat":"-35.3069","lng":"149.195007","name":"Canberra Airport"}, 
{ "code":"CBY", "city":"Canobie","lat":"-19.4794006348","lng":"140.927001953","name":"Canobie Airport"}, 
{ "code":"CBI", "city":"Cape Barren Island","lat":"-40.390537","lng":"148.016933","name":"Cape Barren Island Airport"}, 
{ "code":"CGC", "city":"Cape Gloucester","lat":"-5.455231","lng":"148.422289","name":"Cape Gloucester Airport"}, 
{ "code":"CPN", "city":"Cape Rodney","lat":"-10.179823004","lng":"148.379030228","name":"Cape Rodney Airport"}, 
{ "code":"CRY", "city":"Carlton Hill","lat":"-15.5018997192383","lng":"128.533996582031","name":"Carlton Hill Airport"}, 
{ "code":"CVQ", "city":"Carnarvon","lat":"-24.880091","lng":"113.670752","name":"Carnarvon Airport"}, 
{ "code":"CFP", "city":"Carpentaria Downs","lat":"-18.718481","lng":"144.313028","name":"Carpentaria Downs Airport"}, 
{ "code":"DOI", "city":"Castori Islets","lat":"-10.7009","lng":"150.7218","name":"Doini Airport"}, 
{ "code":"CTL", "city":"Charleville","lat":"-26.4132995605","lng":"146.261993408","name":"Charleville Airport"}, 
{ "code":"CRH", "city":"Cherrabah Homestead Resort","lat":"-28.4301","lng":"152.08895","name":"Cherrabah Airport"}, 
{ "code":"LLG", "city":"Chillagoe","lat":"-17.138386","lng":"144.528494","name":"Chillagoe Airport"}, 
{ "code":"CCL", "city":"Chinchilla","lat":"-26.771947","lng":"150.617571","name":"Chinchilla Airport"}, 
{ "code":"CHC", "city":"Christchurch","lat":"-43.489029","lng":"172.532065","name":"Christchurch International Airport"}, 
{ "code":"CKW", "city":"Christmas Creek Mine","lat":"-22.3543","lng":"119.6426","name":"Christmas Creek Airport"}, 
{ "code":"CVB", "city":"Chungribu","lat":"-4.80662","lng":"144.714996","name":"Chungribu Airport"}, 
{ "code":"ICI", "city":"Cicia","lat":"-17.7432994843","lng":"-179.341995239","name":"Cicia Airport"}, 
{ "code":"BEO", "city":"City of Lake Macquarie","lat":"-33.065975","lng":"151.646283","name":"Lake Macquarie Airport"}, 
{ "code":"GBZ", "city":"Claris","lat":"-36.2414016723633","lng":"175.47200012207","name":"Great Barrier Aerodrome"}, 
{ "code":"CFH", "city":"Clifton Hills","lat":"-27.018299","lng":"138.891998","name":"Clifton Hills Airport"}, 
{ "code":"CNJ", "city":"Cloncurry","lat":"-20.6686000824","lng":"140.503997803","name":"Cloncurry Airport"}, 
{ "code":"KFE", "city":"Cloudbreak Village","lat":"-22.290754","lng":"119.437143","name":"Fortescue - Dave Forrest Aerodrome"}, 
{ "code":"CDU", "city":"Cobbitty","lat":"-34.038338","lng":"150.686406","name":"Camden Airport"}, 
{ "code":"CUQ", "city":"Coen","lat":"-13.761133","lng":"143.113311","name":"Coen Airport"}, 
{ "code":"CFS", "city":"Coffs Harbour","lat":"-30.320601","lng":"153.115997","name":"Coffs Harbour Airport"}, 
{ "code":"XCO", "city":"Colac Otway Shire","lat":"-38.286701","lng":"143.679993","name":"Colac Airport"}, 
{ "code":"CIE", "city":"Collie","lat":"-33.3666992188","lng":"116.217002869","name":"Collie Airport"}, 
{ "code":"CPD", "city":"Coober Pedy","lat":"-29.038312","lng":"134.722166","name":"Coober Pedy Airport"}, 
{ "code":"COY", "city":"Coolawanyah Station","lat":"-21.7946","lng":"117.755","name":"Coolawanyah Airport"}, 
{ "code":"COB", "city":"Coolibah","lat":"-15.5482997894287","lng":"130.962005615234","name":"Coolibah Airport"}, 
{ "code":"OOM", "city":"Cooma","lat":"-36.300445","lng":"148.972408","name":"Cooma Snowy Mountains Airport"}, 
{ "code":"CJF", "city":"Coondewanna","lat":"-22.96669960022","lng":"118.81300354004","name":"Coondewanna Airport"}, 
{ "code":"CRJ", "city":"Coorabie","lat":"-31.8943996429443","lng":"132.296005249023","name":"Coorabie Airport"}, 
{ "code":"ODL", "city":"Cordillo Downs","lat":"-26.7453002929687","lng":"140.638000488281","name":"Cordillo Downs Airport"}, 
{ "code":"CMV", "city":"Coromandel","lat":"-36.791698","lng":"175.509003","name":"Coromandel Airport"}, 
{ "code":"GYZ", "city":"Cosmo Newbery","lat":"-28.034548","lng":"123.81506","name":"Gruyere Airport"}, 
{ "code":"CSD", "city":"Cresswell Downs","lat":"-17.9479999542236","lng":"135.916000366211","name":"Cresswell Downs Airport"}, 
{ "code":"WCD", "city":"Cundeelee","lat":"-30.174236","lng":"122.322249","name":"Carosue Dam Airport"}, 
{ "code":"DYW", "city":"Daly Waters","lat":"-16.2646950664","lng":"133.383378983","name":"Daly Waters Airport"}, 
{ "code":"BEE", "city":"Dampier Peninsula","lat":"-17.0165","lng":"122.6464","name":"Beagle Bay Airport"}, 
{ "code":"DGR", "city":"Dargaville","lat":"-35.939304","lng":"173.892862","name":"Dargaville Aerodrome"}, 
{ "code":"NLF", "city":"Darnley Island","lat":"-9.579176","lng":"143.780276","name":"Darnley Island Airport"}, 
{ "code":"DAU", "city":"Daru","lat":"-9.08676","lng":"143.207993","name":"Daru Airport"}, 
{ "code":"DRW", "city":"Darwin","lat":"-12.41497","lng":"130.88185","name":"Darwin International Airport / RAAF Darwin"}, 
{ "code":"DBP", "city":"Debepare","lat":"-6.30861111111","lng":"141.905555556","name":"Debepare Airport"}, 
{ "code":"MFZ", "city":"Demgulu","lat":"-6.1364","lng":"149.1183","name":"Meselia Airport"}, 
{ "code":"KEG", "city":"Denglagu Mission","lat":"-5.83277777778","lng":"145.097222222","name":"Keglsugl Airport"}, 
{ "code":"MJK", "city":"Denham","lat":"-25.897294","lng":"113.575802","name":"Shark Bay Airport"}, 
{ "code":"DNQ", "city":"Deniliquin","lat":"-35.5593986511","lng":"144.945999146","name":"Deniliquin Airport"}, 
{ "code":"DCN", "city":"Derby","lat":"-17.580458","lng":"123.828449","name":"RAAF Base Curtin"}, 
{ "code":"DRB", "city":"Derby","lat":"-17.37193","lng":"123.66221","name":"Derby Airport"}, 
{ "code":"DER", "city":"Derim","lat":"-6.14472222222","lng":"147.107222222","name":"Derim Airport"}, 
{ "code":"DPO", "city":"Devonport","lat":"-41.1697006226","lng":"146.429992676","name":"Devonport Airport"}, 
{ "code":"DYM", "city":"Diamantina Lakes","lat":"-23.7616996765137","lng":"141.145004272461","name":"Diamantina Lakes Airport"}, 
{ "code":"DNU", "city":"Dinangat","lat":"-6.1546","lng":"146.6772","name":"Dinangat Airport"}, 
{ "code":"DOO", "city":"Dorobisoro","lat":"-9.461855","lng":"147.920907","name":"Dorobisoro Airport"}, 
{ "code":"DRD", "city":"Dorunda Outstation","lat":"-16.5537","lng":"141.8238","name":"Dorunda Airport"}, 
{ "code":"DNG", "city":"Drysdale River","lat":"-15.386429","lng":"126.302235","name":"Doongan Airport"}, 
{ "code":"DRY", "city":"Drysdale River","lat":"-15.71357","lng":"126.381097","name":"Drysdale River Airport"}, 
{ "code":"TDN", "city":"Drysdale River","lat":"-14.790567","lng":"126.498041","name":"Theda Station Airport"}, 
{ "code":"DBO", "city":"Dubbo","lat":"-32.2167015076","lng":"148.574996948","name":"Dubbo City Regional Airport"}, 
{ "code":"DLK", "city":"Dulkaninna","lat":"-29.0132999420166","lng":"138.481002807617","name":"Dulkaninna Airport"}, 
{ "code":"DUD", "city":"Dunedin","lat":"-45.928101","lng":"170.197998","name":"Dunedin International Airport"}, 
{ "code":"DKI", "city":"Dunk Island","lat":"-17.93913","lng":"146.141447","name":"Dunk Island Airport"}, 
{ "code":"ABX", "city":"East Albury","lat":"-36.066758","lng":"146.959148","name":"Albury Airport"}, 
{ "code":"EFG", "city":"Efogi","lat":"-9.15380555556","lng":"147.659805556","name":"Efogi Airport"}, 
{ "code":"MQA", "city":"Eighty Mile Beach","lat":"-19.73799","lng":"120.83818","name":"Mandora Airport"}, 
{ "code":"WLA", "city":"Eighty Mile Beach","lat":"-19.7736","lng":"120.649002","name":"Wallal Downs Airport"}, 
{ "code":"EIH", "city":"Einasleigh","lat":"-18.5032997131","lng":"144.093994141","name":"Einasleigh Airport"}, 
{ "code":"ELC", "city":"Elcho Island","lat":"-12.0193996429","lng":"135.570999146","name":"Elcho Island Airport"}, 
{ "code":"EPT", "city":"Eliptamin","lat":"-5.0412","lng":"141.6779","name":"Eliptamin Airport"}, 
{ "code":"ERQ", "city":"Elrose Mine","lat":"-20.9764","lng":"141.0066","name":"Elrose Airport"}, 
{ "code":"EMS", "city":"Embessa","lat":"-9.447","lng":"148.7628","name":"Embessa Airport"}, 
{ "code":"EMD", "city":"Emerald","lat":"-23.5674991608","lng":"148.179000854","name":"Emerald Airport"}, 
{ "code":"EMI", "city":"Emirau Island","lat":"-1.653949991","lng":"149.9757667","name":"Emirau Airport"}, 
{ "code":"EMO", "city":"Emo Mission","lat":"-9.1234","lng":"148.0415","name":"Emo River Airstrip"}, 
{ "code":"ENB", "city":"Eneabba","lat":"-29.8325004577637","lng":"115.246002197266","name":"Eneabba Airport"}, 
{ "code":"EGA", "city":"Engati","lat":"-6.9179","lng":"146.1053","name":"Engati Airstrip"}, 
{ "code":"ERE", "city":"Erave","lat":"-6.60646315446","lng":"143.900213242","name":"Erave Airport"}, 
{ "code":"ERU", "city":"Erume","lat":"-8.2538","lng":"146.9747","name":"Erume Airport"}, 
{ "code":"ESA", "city":"Esa'ala","lat":"-9.87432702318","lng":"150.954208374","name":"Esa'ala Airport"}, 
{ "code":"EPR", "city":"Esperance","lat":"-33.684399","lng":"121.822998","name":"Esperance Airport"}, 
{ "code":"MEB", "city":"Essendon Fields","lat":"-37.7281","lng":"144.901993","name":"Melbourne Essendon Airport"}, 
{ "code":"ETD", "city":"Etadunna","lat":"-28.740801","lng":"138.589005","name":"Etadunna Airport"}, 
{ "code":"EVD", "city":"Eva Downs","lat":"-18.0009994507","lng":"134.863006592","name":"Eva Downs Airport"}, 
{ "code":"LEA", "city":"Exmouth","lat":"-22.235201","lng":"114.090024","name":"Learmonth Airport"}, 
{ "code":"EXM", "city":"Exmouth","lat":"-22.040677","lng":"114.102663","name":"Exmouth Airport"}, 
{ "code":"FNE", "city":"Fane Mission","lat":"-8.54927777778","lng":"147.085833333","name":"Fane Airport"}, 
{ "code":"WTP", "city":"Fatima Mission","lat":"-8.545833","lng":"147.2525","name":"Woitape Airport"}, 
{ "code":"FRQ", "city":"Feramin","lat":"-5.208","lng":"141.6988","name":"Feramin Airport"}, 
{ "code":"FIK", "city":"Finke","lat":"-25.5946998596","lng":"134.582992554","name":"Finke Airport"}, 
{ "code":"FTI", "city":"Fitiuta Village","lat":"-14.216131","lng":"-169.423771","name":"Fitiuta Airport"}, 
{ "code":"FRB", "city":"Forbes","lat":"-33.363602","lng":"147.934998","name":"Forbes Airport"}, 
{ "code":"WGA", "city":"Forest Hill","lat":"-35.163484","lng":"147.46832","name":"Wagga Wagga Airport"}, 
{ "code":"FSL", "city":"Fossil Downs Station","lat":"-18.1321","lng":"125.7873","name":"Fossil Downs Airport"}, 
{ "code":"FGL", "city":"Fox Glacier","lat":"-43.46111","lng":"170.01702","name":"Fox Glacier Aerodrome"}, 
{ "code":"FAQ", "city":"Frieda River","lat":"-4.610468","lng":"141.960138","name":"Frieda River Airport"}, 
{ "code":"FUB", "city":"Fulleborn","lat":"-6.1518","lng":"150.6264","name":"Fulleborn Airport"}, 
{ "code":"FUM", "city":"Fuma","lat":"-6.3933","lng":"142.4408","name":"Fuma Airport"}, 
{ "code":"FUT", "city":"Futuna Island","lat":"-14.311565","lng":"-178.066492","name":"Pointe Vele Airport"}, 
{ "code":"GBP", "city":"Gamboola","lat":"-16.54412","lng":"143.668155","name":"Gamboola Airport"}, 
{ "code":"GAR", "city":"Garaina","lat":"-7.875625","lng":"147.141266","name":"Garaina Airport"}, 
{ "code":"WIU", "city":"Garove Island","lat":"-4.689522","lng":"149.440112","name":"Witu Airport"}, 
{ "code":"GSC", "city":"Gascoyne Junction","lat":"-25.0546","lng":"115.2026","name":"Gascoyne Junction Airport"}, 
{ "code":"GMI", "city":"Gasmata Island","lat":"-6.27111005783","lng":"150.330993652","name":"Gasmata Island Airport"}, 
{ "code":"GBC", "city":"Gasuke","lat":"-6.1028","lng":"141.7393","name":"Gasuke Airport"}, 
{ "code":"GAH", "city":"Gayndah","lat":"-25.615939","lng":"151.62055","name":"Gayndah Airport"}, 
{ "code":"GEE", "city":"George Town","lat":"-41.079491","lng":"146.839061","name":"George Town Airport"}, 
{ "code":"GTT", "city":"Georgetown","lat":"-18.302676","lng":"143.530925","name":"Georgetown Airport"}, 
{ "code":"GEW", "city":"Gewoia","lat":"-9.2263","lng":"148.4949","name":"Gewoia Airport"}, 
{ "code":"EDD", "city":"Ghan","lat":"-25.206106","lng":"133.254161","name":"Erldunda Airport"}, 
{ "code":"HRY", "city":"Ghan","lat":"-24.584","lng":"133.236","name":"Henbury Airport"}, 
{ "code":"KGR", "city":"Ghan","lat":"-25.8428","lng":"133.292007","name":"Kulgera Airport"}, 
{ "code":"GBV", "city":"Gibb","lat":"-16.418661","lng":"126.445685","name":"Gibb River Airport"}, 
{ "code":"GBW", "city":"Ginbata","lat":"-22.5812","lng":"120.03553","name":"Ginbata Airport"}, 
{ "code":"GIS", "city":"Gisborne","lat":"-38.6633","lng":"177.977997","name":"Gisborne Airport"}, 
{ "code":"GLT", "city":"Gladstone","lat":"-23.869763","lng":"151.225439","name":"Gladstone Airport"}, 
{ "code":"GLI", "city":"Glen Innes","lat":"-29.676029","lng":"151.691156","name":"Glen Innes Airport"}, 
{ "code":"GTN", "city":"Glentanner Station","lat":"-43.9067001342773","lng":"170.128005981445","name":"Glentanner Airport"}, 
{ "code":"OOL", "city":"Gold Coast","lat":"-28.165962","lng":"153.506641","name":"Gold Coast Airport"}, 
{ "code":"GOE", "city":"Gonaili","lat":"-5.527716614","lng":"151.5733333","name":"Gonaili Airport"}, 
{ "code":"GOC", "city":"Gora","lat":"-9.0021","lng":"148.2364","name":"Gora Airstrip"}, 
{ "code":"GDD", "city":"Gordon Downs","lat":"-18.6781005859375","lng":"128.591995239258","name":"Gordon Downs Airport"}, 
{ "code":"GKA", "city":"Goronka","lat":"-6.08168983459","lng":"145.391998291","name":"Goroka Airport"}, 
{ "code":"GOS", "city":"Gosford","lat":"-33.367681","lng":"151.299806","name":"Somersby Airstrip"}, 
{ "code":"GFN", "city":"Grafton","lat":"-29.754795","lng":"153.031234","name":"Clarence Valley Regional Airport"}, 
{ "code":"GKL", "city":"Great Keppel Island","lat":"-23.184575","lng":"150.94164","name":"Great Keppel Is Airport"}, 
{ "code":"GVI", "city":"Green River","lat":"-3.90224289894","lng":"141.170516968","name":"Green River Airport"}, 
{ "code":"GFE", "city":"Grenfell","lat":"-34","lng":"148.132995605","name":"Grenfell Airport"}, 
{ "code":"GFF", "city":"Griffith","lat":"-34.2508010864","lng":"146.067001343","name":"Griffith Airport"}, 
{ "code":"GTE", "city":"Groote Eylandt","lat":"-13.972405","lng":"136.458553","name":"Groote Eylandt Airport"}, 
{ "code":"GUG", "city":"Guari","lat":"-8.1286","lng":"146.8722","name":"Guari Airport"}, 
{ "code":"GLP", "city":"Gulgubip","lat":"-5.2808","lng":"141.5411","name":"Gulgubip Airport"}, 
{ "code":"KRU", "city":"Gunim","lat":"-8.271612","lng":"147.071899","name":"Kerau Airport"}, 
{ "code":"GUE", "city":"Guriaso","lat":"-3.583167","lng":"141.5895","name":"Guriaso (Keraso) Airport"}, 
{ "code":"GUR", "city":"Gurney","lat":"-10.3114995956","lng":"150.333999634","name":"Gurney Airport"}, 
{ "code":"GAP", "city":"Gusap","lat":"-6.053196","lng":"145.959047","name":"Gusap Airport"}, 
{ "code":"NKN", "city":"Gwarawon","lat":"-5.837","lng":"146.4533","name":"Nankina Airport"}, 
{ "code":"HBD", "city":"Habi","lat":"-6.32","lng":"142.4893","name":"Habi Airport"}, 
{ "code":"HEO", "city":"Haelogo","lat":"-9.13658","lng":"147.598434","name":"Haelogo Airport"}, 
{ "code":"HIT", "city":"Haivaro","lat":"-6.9406","lng":"143.059","name":"Haivaro Airport"}, 
{ "code":"HLZ", "city":"Hamilton","lat":"-37.8666992188","lng":"175.332000732","name":"Hamilton International Airport"}, 
{ "code":"HTI", "city":"Hamilton Island","lat":"-20.3581008911","lng":"148.95199585","name":"Hamilton Island Airport"}, 
{ "code":"HAZ", "city":"Hatzfeldhaven","lat":"-4.4033","lng":"145.2056","name":"Hatzfeldhaven Airport"}, 
{ "code":"HWA", "city":"Hawabango","lat":"-7.392994","lng":"146.003487","name":"Hawabango Airport"}, 
{ "code":"HWK", "city":"Hawker","lat":"-31.855907","lng":"138.468079","name":"Wilpena Pound Airport"}, 
{ "code":"HNI", "city":"Heiweni","lat":"-7.4223","lng":"146.4276","name":"Heiweni Airport"}, 
{ "code":"HLV", "city":"Helenvale","lat":"-15.6857995986938","lng":"145.214996337891","name":"Helenvale Airport"}, 
{ "code":"HMG", "city":"Hermannsburg (Ntaria)","lat":"-23.926485","lng":"132.807798","name":"Hermannsburg Airport"}, 
{ "code":"MNP", "city":"Hermit Islands","lat":"-1.550403","lng":"145.017504","name":"Maron Island Airport"}, 
{ "code":"HVB", "city":"Hervey Bay","lat":"-25.320127","lng":"152.880662","name":"Hervey Bay Airport"}, 
{ "code":"HIG", "city":"Highbury","lat":"-16.424148","lng":"143.14534","name":"Highbury Airport"}, 
{ "code":"HLL", "city":"Hillside","lat":"-21.718283","lng":"119.440334","name":"Hillside Airport"}, 
{ "code":"HBA", "city":"Hobart (Cambridge)","lat":"-42.8371","lng":"147.51295","name":"Hobart International Airport"}, 
{ "code":"KMF", "city":"Hoieti","lat":"-7.64925","lng":"145.956944444","name":"Kamina Airport"}, 
{ "code":"HNN", "city":"Honinabi","lat":"-6.2457","lng":"142.1771","name":"Honinabi Airport"}, 
{ "code":"HPE", "city":"Hope Vale","lat":"-15.2923","lng":"145.1035","name":"Hope Vale Airport"}, 
{ "code":"HID", "city":"Horn","lat":"-10.585628","lng":"142.292653","name":"Horn Island Airport"}, 
{ "code":"HGD", "city":"Hughenden","lat":"-20.815001","lng":"144.225006","name":"Hughenden Airport"}, 
{ "code":"IAL", "city":"Ialibu","lat":"-6.2782","lng":"143.9944","name":"Ialibu Airport"}, 
{ "code":"IMA", "city":"Iamalele, Fergusson Island","lat":"-9.5107","lng":"150.5246","name":"Iamalele Airport"}, 
{ "code":"IBI", "city":"Iboki","lat":"-5.5536","lng":"149.19","name":"Iboki Airport"}, 
{ "code":"IHU", "city":"Ihu","lat":"-7.89756","lng":"145.395996","name":"Ihu Airport"}, 
{ "code":"ILP", "city":"Île des Pins","lat":"-22.5888996124268","lng":"167.455993652344","name":"Île des Pins Airport"}, 
{ "code":"IMN", "city":"Imane","lat":"-6.7524","lng":"146.1072","name":"Imane Airport"}, 
{ "code":"IMD", "city":"Imonda","lat":"-3.328","lng":"141.1573","name":"Imonda Airport"}, 
{ "code":"IDN", "city":"Indagen","lat":"-6.22663","lng":"147.244","name":"Indagen Airport"}, 
{ "code":"IDK", "city":"Indulkana","lat":"-26.965435","lng":"133.321989","name":"Indulkana Airport"}, 
{ "code":"INJ", "city":"Injune","lat":"-25.851","lng":"148.5497","name":"Injune Airport"}, 
{ "code":"IKP", "city":"Inkerman","lat":"-16.229225","lng":"141.434607","name":"Inkerman Airport"}, 
{ "code":"IVC", "city":"Invercargill","lat":"-46.4123992919922","lng":"168.313003540039","name":"Invercargill Airport"}, 
{ "code":"IVR", "city":"Inverell","lat":"-29.888299942","lng":"151.143997192","name":"Inverell Airport"}, 
{ "code":"IVW", "city":"Inverway","lat":"-17.8411006927","lng":"129.643005371","name":"Inverway Airport"}, 
{ "code":"IOK", "city":"Iokea","lat":"-8.401","lng":"146.277","name":"Iokea Airport"}, 
{ "code":"IOP", "city":"Ioma","lat":"-8.3614","lng":"147.84","name":"Ioma Airport"}, 
{ "code":"PEA", "city":"Ironstone","lat":"-35.7558462874","lng":"137.962875366","name":"Penneshaw Airport"}, 
{ "code":"ITK", "city":"Itokama","lat":"-9.201527","lng":"148.264261","name":"Itokama Airport"}, 
{ "code":"JAQ", "city":"Jacquinot Bay","lat":"-5.6525","lng":"151.507004","name":"Jacquinot Bay Airport"}, 
{ "code":"IBM", "city":"Japal Camp","lat":"-21.287575","lng":"118.88252","name":"Iron Bridge Mine Airport"}, 
{ "code":"JOP", "city":"Josephstaal","lat":"-4.74708333333","lng":"145.007083333","name":"Josephstaal Airport"}, 
{ "code":"JUN", "city":"Jundah","lat":"-24.838045","lng":"143.061962","name":"Jundah Airport"}, 
{ "code":"JUR", "city":"Jurien Bay","lat":"-30.302699","lng":"115.055551","name":"Jurien Bay Airport"}, 
{ "code":"KGW", "city":"Kagi","lat":"-9.13591666667","lng":"147.669444444","name":"Kagi Airport"}, 
{ "code":"AGK", "city":"Kagua","lat":"-6.39638888889","lng":"143.853611111","name":"Kagua Airport"}, 
{ "code":"KKO", "city":"Kaikohe","lat":"-35.451099","lng":"173.817001","name":"Kaikohe Airport"}, 
{ "code":"KZF", "city":"Kaintiba","lat":"-7.50025","lng":"146.033833333","name":"Kaintiba Airport"}, 
{ "code":"KOR", "city":"Kakoro","lat":"-7.83466666667","lng":"146.5335","name":"Kakoro(Koroko) Airstrip"}, 
{ "code":"KAX", "city":"Kalbarri","lat":"-27.692813","lng":"114.259169","name":"Kalbarri Airport"}, 
{ "code":"KPP", "city":"Kalpower","lat":"-14.89","lng":"144.22","name":"Kalpowar Airport"}, 
{ "code":"DKV", "city":"Kaltukatjara","lat":"-24.859533","lng":"129.122209","name":"Docker River Airport"}, 
{ "code":"UBU", "city":"Kalumburu","lat":"-14.28784","lng":"126.633182","name":"Kalumburu Airport"}, 
{ "code":"KDS", "city":"Kamaran Downs","lat":"-24.3388","lng":"139.2785","name":"Kamaran Downs Airport"}, 
{ "code":"KDB", "city":"Kambalda West","lat":"-31.1907","lng":"121.5978","name":"Kambalda Airport"}, 
{ "code":"KDQ", "city":"Kamberatoro Mission","lat":"-3.600556","lng":"141.051667","name":"Kamberatoro Airport"}, 
{ "code":"KAQ", "city":"Kamulai Mission","lat":"-8.15069444444","lng":"146.834","name":"Kamulai Airport"}, 
{ "code":"KUY", "city":"Kamusi","lat":"-7.420347","lng":"143.121811","name":"Kamusi Airport"}, 
{ "code":"KEX", "city":"Kanabea","lat":"-7.53888888889","lng":"145.905","name":"Kanabea Airport"}, 
{ "code":"KNE", "city":"Kanainj","lat":"-5.2903","lng":"144.7072","name":"Kanainj Airport"}, 
{ "code":"KDP", "city":"Kandep","lat":"-5.84061111111","lng":"143.507222222","name":"Kandep Airport"}, 
{ "code":"KDR", "city":"Kandrian","lat":"-6.19217","lng":"149.54783","name":"Kandrian Airport"}, 
{ "code":"PDN", "city":"Kangaroo Island","lat":"-35.807","lng":"137.264","name":"Parndana Airport"}, 
{ "code":"KPL", "city":"Kapal","lat":"-8.630184","lng":"142.823756","name":"Kapal Airport"}, 
{ "code":"KAK", "city":"Kar","lat":"-6.2452","lng":"143.5516","name":"Kar Airport"}, 
{ "code":"KRX", "city":"Kar Kar Island","lat":"-4.557","lng":"145.9404","name":"Kar Kar Airport"}, 
{ "code":"KQR", "city":"Karara","lat":"-29.217223","lng":"116.687154","name":"Karara Airport"}, 
{ "code":"KAF", "city":"Karato","lat":"-6.2655","lng":"155.3052","name":"Karato Airport"}, 
{ "code":"SLJ", "city":"Karijini National Park","lat":"-22.25677","lng":"117.850454","name":"Solomon Airport"}, 
{ "code":"KMR", "city":"Karimui","lat":"-6.4921","lng":"144.823","name":"Karimui Airport"}, 
{ "code":"KTA", "city":"Karratha","lat":"-20.7122001648","lng":"116.773002625","name":"Karratha Airport"}, 
{ "code":"KSB", "city":"Kasonombe","lat":"-6.3819","lng":"146.9859","name":"Kasonombe Airport"}, 
{ "code":"KVG", "city":"Kavieng","lat":"-2.57940006256","lng":"150.807998657","name":"Kavieng Airport"}, 
{ "code":"RUU", "city":"Kawbenaberi","lat":"-5.33444444444","lng":"144.256666667","name":"Ruti Airport"}, 
{ "code":"KWO", "city":"Kawito","lat":"-7.97700691223","lng":"142.823577881","name":"Kawito Airport"}, 
{ "code":"KYB", "city":"Ken's Bore","lat":"-22.15722","lng":"116.156223","name":"Ken's Bore airport"}, 
{ "code":"KMA", "city":"Kerema","lat":"-7.96361017227","lng":"145.770996094","name":"Kerema Airport"}, 
{ "code":"KKE", "city":"Kerikeri","lat":"-35.259148","lng":"173.913317","name":"Kerikeri Airport"}, 
{ "code":"KII", "city":"Kibuli","lat":"-9.006528","lng":"142.698056","name":"Kibuli Airstrip"}, 
{ "code":"KIE", "city":"Kieta","lat":"-6.305417","lng":"155.728139","name":"Aropa Airport"}, 
{ "code":"KRI", "city":"Kikori","lat":"-7.42438","lng":"144.250076","name":"Kikori Airport"}, 
{ "code":"HKN", "city":"Kimbe","lat":"-5.463846","lng":"150.407327","name":"Hoskins Airport"}, 
{ "code":"KBD", "city":"Kimberley Downs","lat":"-17.3978004455566","lng":"124.355003356934","name":"Kimberley Downs Airport"}, 
{ "code":"KIQ", "city":"Kira","lat":"-8.06511111111","lng":"147.332027778","name":"Kira Airport"}, 
{ "code":"KBB", "city":"Kirkimbie","lat":"-17.7791996002","lng":"129.210006714","name":"Kirkimbie Station Airport"}, 
{ "code":"KVE", "city":"Kitava Island","lat":"-8.6285","lng":"151.327","name":"Kitava Airport"}, 
{ "code":"UNG", "city":"Kiunga","lat":"-6.12571001052856","lng":"141.281997680664","name":"Kiunga Airport"}, 
{ "code":"KKD", "city":"Kokoda","lat":"-8.884679","lng":"147.730957","name":"Kokoda Airport"}, 
{ "code":"RAB", "city":"Kokopo","lat":"-4.34046","lng":"152.380005","name":"Tokua Airport"}, 
{ "code":"KQL", "city":"Kol","lat":"-5.73116666667","lng":"144.846","name":"Kol Airport"}, 
{ "code":"KCJ", "city":"Komaio","lat":"-7.2714","lng":"143.5952","name":"Komaio Airport"}, 
{ "code":"HOC", "city":"Komako","lat":"-7.3984","lng":"145.8827","name":"Komako Airport"}, 
{ "code":"KOM", "city":"Komo","lat":"-6.0682","lng":"142.8598","name":"Komo-Manda Airport"}, 
{ "code":"KMB", "city":"Konambe","lat":"-5.4875","lng":"144.606944","name":"Koinambe Airport"}, 
{ "code":"KPF", "city":"Kondobol","lat":"-8.5336","lng":"142.5049","name":"Kondobol Airport"}, 
{ "code":"KNQ", "city":"Koné","lat":"-21.053551","lng":"164.838768","name":"Koné Airport"}, 
{ "code":"KGB", "city":"Konge","lat":"-6.2239","lng":"147.2152","name":"Konge Airport"}, 
{ "code":"OOD", "city":"Koodaideri Mine","lat":"-22.504291","lng":"119.07683","name":"Koodaideri Mine Airport"}, 
{ "code":"KCI", "city":"Koolan Island","lat":"-16.125","lng":"123.735","name":"Koolan Central Airport"}, 
{ "code":"KKP", "city":"Koolburra","lat":"-15.3189001083374","lng":"143.955001831055","name":"Koolburra Airport"}, 
{ "code":"KPA", "city":"Kopiago","lat":"-5.3883","lng":"142.4977","name":"Kopiago Airport"}, 
{ "code":"KXF", "city":"Koro Island","lat":"-17.3458003998","lng":"179.42199707","name":"Koro Island Airport"}, 
{ "code":"KDE", "city":"Koroba","lat":"-5.6952","lng":"142.7441","name":"Koroba Airport"}, 
{ "code":"PCN", "city":"Koromiko","lat":"-41.346099853516","lng":"173.95599365234","name":"Picton Aerodrome"}, 
{ "code":"KSP", "city":"Kosipe Mission","lat":"-8.450716","lng":"147.209195","name":"Kosipe Airport"}, 
{ "code":"KOC", "city":"Koumac","lat":"-20.546323","lng":"164.255648","name":"Koumac Airport"}, 
{ "code":"KWM", "city":"Kowanyama","lat":"-15.485369","lng":"141.752572","name":"Kowanyama Airport"}, 
{ "code":"KUG", "city":"Kubin Island","lat":"-10.22648","lng":"142.219619","name":"Kubin Island Airport"}, 
{ "code":"CMU", "city":"Kundiawa","lat":"-6.02429008483887","lng":"144.970993041992","name":"Chimbu Airport"}, 
{ "code":"KGM", "city":"Kungim","lat":"-5.671","lng":"141.03","name":"Kungim Airport"}, 
{ "code":"KNX", "city":"Kununurra","lat":"-15.7781","lng":"128.707993","name":"East Kimberley Regional (Kununurra) Airport"}, 
{ "code":"KUP", "city":"Kupiano","lat":"-10.0736","lng":"148.218","name":"Kupiano Airport"}, 
{ "code":"KUQ", "city":"Kuri","lat":"-7.135083","lng":"143.276111","name":"Kuri Airport"}, 
{ "code":"KRD", "city":"Kurundi Station","lat":"-20.51","lng":"134.6706","name":"Kurundi Airport"}, 
{ "code":"LAB", "city":"Lab Lab Mission","lat":"-5.7204","lng":"148.0566","name":"Lab Lab Airport"}, 
{ "code":"LBS", "city":"Labasa","lat":"-16.4667","lng":"179.339996","name":"Labasa Airport"}, 
{ "code":"WGT", "city":"Laceby","lat":"-36.417914","lng":"146.306896","name":"Wangaratta Airport"}, 
{ "code":"LYT", "city":"Lady Elliot Island","lat":"-24.1129","lng":"152.7156","name":"Lady Elliot Island Airstrip"}, 
{ "code":"LAE", "city":"Lae","lat":"-6.569803","lng":"146.725977","name":"Nadzab Airport"}, 
{ "code":"HOK", "city":"Lajamanu","lat":"-18.3367004395","lng":"130.638000488","name":"Hooker Creek Airport"}, 
{ "code":"LGE", "city":"Lake Gregory","lat":"-20.1089","lng":"127.619","name":"Mulan Airport"}, 
{ "code":"LMY", "city":"Lake Murray","lat":"-7.00992012024","lng":"141.494003296","name":"Lake Murray Airport"}, 
{ "code":"LKB", "city":"Lakeba Island","lat":"-18.1991996765","lng":"-178.817001343","name":"Lakeba Island Airport"}, 
{ "code":"LFP", "city":"Lakefield","lat":"-14.9207","lng":"144.203","name":"Lakefield Airport"}, 
{ "code":"BZP", "city":"Lakefield National Park","lat":"-14.7402777778","lng":"144.119444444","name":"Bizant Airport"}, 
{ "code":"LKD", "city":"Lakeland Downs","lat":"-15.841213","lng":"144.849118","name":"Lakeland Airport"}, 
{ "code":"LDW", "city":"Lansdowne Station","lat":"-17.6128","lng":"126.743","name":"Lansdowne Airport"}, 
{ "code":"AVV", "city":"Lara","lat":"-38.039398","lng":"144.468994","name":"Avalon Airport"}, 
{ "code":"LUC", "city":"Laucala Island","lat":"-16.7481","lng":"-179.667007","name":"Laucala Island Airport"}, 
{ "code":"LST", "city":"Launceston (Western Junction)","lat":"-41.544935","lng":"147.210785","name":"Launceston Airport"}, 
{ "code":"LUT", "city":"Laura Station","lat":"-15.182758","lng":"144.345535","name":"New Laura Airport"}, 
{ "code":"LVO", "city":"Laverton","lat":"-28.614267","lng":"122.428673","name":"Laverton Airport"}, 
{ "code":"WND", "city":"Laverton","lat":"-28.48061","lng":"122.244415","name":"Windarra Airport"}, 
{ "code":"LTF", "city":"Leitre","lat":"-2.8337","lng":"141.6257","name":"Leitre Airport"}, 
{ "code":"LNO", "city":"Leonora","lat":"-28.8780994415283","lng":"121.315002441406","name":"Leonora Airport"}, 
{ "code":"LPN", "city":"Leron Plains","lat":"-6.3917","lng":"146.3434","name":"Leron Plains Airport"}, 
{ "code":"LNG", "city":"Lese","lat":"-8.2799","lng":"146.2765","name":"Lese Airport"}, 
{ "code":"LIF", "city":"Lifou","lat":"-20.774563","lng":"167.239328","name":"Lifou Airport"}, 
{ "code":"LIB", "city":"Limbunya","lat":"-17.2355995178","lng":"129.882003784","name":"Limbunya Airport"}, 
{ "code":"LDC", "city":"Lindeman Island","lat":"-20.4535999298","lng":"149.039993286","name":"Lindeman Island Airport"}, 
{ "code":"LGN", "city":"Linga Linga","lat":"-5.53194444444","lng":"149.734166667","name":"Linga Linga Airport"}, 
{ "code":"LSY", "city":"Lismore","lat":"-28.830689","lng":"153.258419","name":"Lismore Airport"}, 
{ "code":"LLL", "city":"Lissadell Station","lat":"-16.661","lng":"128.594","name":"Lissadell Airport"}, 
{ "code":"LOC", "city":"Lock","lat":"-33.5442008972168","lng":"135.692993164062","name":"Lock Airport"}, 
{ "code":"IRG", "city":"Lockhart River","lat":"-12.7869","lng":"143.304993","name":"Lockhart River Airport"}, 
{ "code":"LNV", "city":"Londolovit","lat":"-3.04361009598","lng":"152.628997803","name":"Londolovit Airport"}, 
{ "code":"LSJ", "city":"Long Island","lat":"-5.3604","lng":"147.0177","name":"Long Island Airport"}, 
{ "code":"LRE", "city":"Longreach","lat":"-23.4342","lng":"144.279999","name":"Longreach Airport"}, 
{ "code":"LDH", "city":"Lord Howe Island","lat":"-31.538204","lng":"159.07546","name":"Lord Howe Island Airport"}, 
{ "code":"LSA", "city":"Losuia","lat":"-8.50582027435303","lng":"151.080993652344","name":"Losuia Airport"}, 
{ "code":"LTV", "city":"Lotus Vale","lat":"-17.0482997894","lng":"141.37600708","name":"Lotus Vale Airport"}, 
{ "code":"LWI", "city":"Lowai","lat":"-6.3344","lng":"146.6458","name":"Lowai Airport"}, 
{ "code":"LMI", "city":"Lumi","lat":"-3.47683951134","lng":"142.041292191","name":"Lumi Airport"}, 
{ "code":"LTP", "city":"Lyndhurst","lat":"-19.1958007812","lng":"144.371002197","name":"Lyndhurst Airport"}, 
{ "code":"UBB", "city":"Mabuiag Island","lat":"-9.950168","lng":"142.19523","name":"Mabuiag Island Airport"}, 
{ "code":"MKY", "city":"Mackay","lat":"-21.170816","lng":"149.182588","name":"Mackay Airport"}, 
{ "code":"MAG", "city":"Madang","lat":"-5.20707988739","lng":"145.789001465","name":"Madang Airport"}, 
{ "code":"MIZ", "city":"Mainoru","lat":"-14.0533","lng":"134.0942","name":"Mainoru Airstrip"}, 
{ "code":"OPB", "city":"Maitanakunai","lat":"-4.794727","lng":"151.696195","name":"Open Bay Airport"}, 
{ "code":"MPG", "city":"Makini","lat":"-6.53222222222","lng":"147.651166667","name":"Makini Airport"}, 
{ "code":"MMV", "city":"Mal Island","lat":"-1.39139","lng":"144.17131","name":"Mal Airport"}, 
{ "code":"PUV", "city":"Malabou","lat":"-20.289155","lng":"164.09935","name":"Poum / Malabou Airport"}, 
{ "code":"MLQ", "city":"Malalaua","lat":"-8.07138888889","lng":"146.155472222","name":"Malalaua Airport"}, 
{ "code":"MQO", "city":"Malam","lat":"-8.70916666667","lng":"142.649722222","name":"Malam Airport"}, 
{ "code":"PTF", "city":"Malolo Lailai Island","lat":"-17.778448","lng":"177.196996","name":"Malolo Lailai Island Airport"}, 
{ "code":"MAP", "city":"Mamai","lat":"-10.290833","lng":"149.519167","name":"Mamai Airport"}, 
{ "code":"MNF", "city":"Mana Island","lat":"-17.672844","lng":"177.0985","name":"Mana Island Airport"}, 
{ "code":"MRM", "city":"Manari","lat":"-9.1908","lng":"147.6219","name":"Manari Airport"}, 
{ "code":"MGP", "city":"Manga Mission","lat":"-4.147","lng":"153.0186","name":"Manga Airport"}, 
{ "code":"MFO", "city":"Manguna","lat":"-5.577778","lng":"151.792333","name":"Manguna Airport"}, 
{ "code":"MNG", "city":"Maningrida","lat":"-12.0560998917","lng":"134.23399353","name":"Maningrida Airport"}, 
{ "code":"UUU", "city":"Manumu","lat":"-9.0746","lng":"147.5735","name":"Manumu Airport"}, 
{ "code":"AMZ", "city":"Manurewa","lat":"-37.0297012329102","lng":"174.973007202148","name":"Ardmore Airport"}, 
{ "code":"MAS", "city":"Manus Island","lat":"-2.06189","lng":"147.423996","name":"Momote Airport"}, 
{ "code":"MXS", "city":"Maota","lat":"-13.7423","lng":"-172.257996","name":"Maota Airport"}, 
{ "code":"MPF", "city":"Mapoda","lat":"-7.979","lng":"143.1694","name":"Mapoda Airport"}, 
{ "code":"DNB", "city":"Maramie","lat":"-16.047394","lng":"142.394415","name":"Dunbar Airport"}, 
{ "code":"KOH", "city":"Maramie","lat":"-15.888484","lng":"142.439461","name":"Koolatah Airport"}, 
{ "code":"MWI", "city":"Maramuni","lat":"-5.13","lng":"143.4829","name":"Maramuni Airport"}, 
{ "code":"MWG", "city":"Marawaka","lat":"-6.9736","lng":"145.8849","name":"Marawaka Airport"}, 
{ "code":"MEE", "city":"Maré","lat":"-21.482438","lng":"168.038465","name":"Maré Airport"}, 
{ "code":"MRG", "city":"Mareeba","lat":"-17.070277","lng":"145.424228","name":"Mareeba Airport"}, 
{ "code":"MXD", "city":"Marion Downs","lat":"-23.363702","lng":"139.649663","name":"Marion Downs Airport"}, 
{ "code":"MRP", "city":"Marla","lat":"-27.334298","lng":"133.627696","name":"Marla Airport"}, 
{ "code":"MCY", "city":"Maroochydore","lat":"-26.593324","lng":"153.08319","name":"Sunshine Coast Airport"}, 
{ "code":"MQE", "city":"Marqua","lat":"-22.8057994842529","lng":"137.251007080078","name":"Marqua Airport"}, 
{ "code":"MBH", "city":"Maryborough","lat":"-25.513528","lng":"152.713603","name":"Maryborough Airport"}, 
{ "code":"MBV", "city":"Masa","lat":"-6.345","lng":"147.591","name":"Masa Airport"}, 
{ "code":"MRO", "city":"Masterton","lat":"-40.974634","lng":"175.63454","name":"Hood Airport"}, 
{ "code":"TVU", "city":"Matei","lat":"-16.690599","lng":"-179.876999","name":"Matei Airport"}, 
{ "code":"MRH", "city":"May River","lat":"-4.3615","lng":"141.785","name":"May River Airstrip"}, 
{ "code":"MCV", "city":"McArthur River Mine","lat":"-16.4424991608","lng":"136.083999634","name":"McArthur River Mine Airport"}, 
{ "code":"MEL", "city":"Melbourne","lat":"-37.661548","lng":"144.836432","name":"Melbourne Airport"}, 
{ "code":"MBW", "city":"Melbourne","lat":"-37.9757995605469","lng":"145.102005004883","name":"Melbourne Moorabbin Airport"}, 
{ "code":"MDU", "city":"Mendi","lat":"-6.14774","lng":"143.656998","name":"Mendi Airport"}, 
{ "code":"MYX", "city":"Menyamya","lat":"-7.21166666667","lng":"146.019361111","name":"Menyamya Airport"}, 
{ "code":"MIM", "city":"Merimbula","lat":"-36.9085998535","lng":"149.901000977","name":"Merimbula Airport"}, 
{ "code":"MLV", "city":"Merluna","lat":"-13.0649","lng":"142.4536","name":"Merluna Airport"}, 
{ "code":"MQL", "city":"Mildura","lat":"-34.2291984558","lng":"142.085998535","name":"Mildura Airport"}, 
{ "code":"SNB", "city":"Milikapiti","lat":"-11.417674","lng":"130.648481","name":"Snake Bay Airport"}, 
{ "code":"MGT", "city":"Milingimbi Island","lat":"-12.0944004059","lng":"134.893997192","name":"Milingimbi Airport"}, 
{ "code":"MXK", "city":"Mindik","lat":"-6.47166666667","lng":"147.441138889","name":"Mindik Airport"}, 
{ "code":"MZN", "city":"Minj","lat":"-5.902962","lng":"144.686586","name":"Minj Airport"}, 
{ "code":"MWY", "city":"Miranda Downs","lat":"-17.328899","lng":"141.886002","name":"Miranda Downs Airport"}, 
{ "code":"MIS", "city":"Misima Island","lat":"-10.6892004013","lng":"152.837997437","name":"Misima Island Airport"}, 
{ "code":"MIH", "city":"Mitchell Plateau","lat":"-14.790817","lng":"125.825729","name":"Mitchell Plateau Airport"}, 
{ "code":"MPX", "city":"Miyanmin","lat":"-4.90305555556","lng":"141.620833333","name":"Miyanmin Airport"}, 
{ "code":"MFJ", "city":"Moala","lat":"-18.5666999817","lng":"179.951004028","name":"Moala Airport"}, 
{ "code":"MJJ", "city":"Moki","lat":"-5.7181","lng":"145.2404","name":"Moki Airport"}, 
{ "code":"MWT", "city":"Moolawatana Station","lat":"-29.9069","lng":"139.765","name":"Moolawatana Airport"}, 
{ "code":"MOO", "city":"Moomba","lat":"-28.0994","lng":"140.197006","name":"Moomba Airport"}, 
{ "code":"GET", "city":"Moonyoonooka","lat":"-28.796101","lng":"114.707001","name":"Geraldton Airport"}, 
{ "code":"MOV", "city":"Moranbah","lat":"-22.057800293","lng":"148.07699585","name":"Moranbah Airport"}, 
{ "code":"MRZ", "city":"Moree","lat":"-29.4988994598","lng":"149.845001221","name":"Moree Airport"}, 
{ "code":"MHY", "city":"Morehead","lat":"-8.71411111111","lng":"141.644444444","name":"Morehead Airport"}, 
{ "code":"MET", "city":"Moreton","lat":"-12.4441995621","lng":"142.638000488","name":"Moreton Airport"}, 
{ "code":"MXH", "city":"Moro","lat":"-6.36332988739","lng":"143.238006592","name":"Moro Airport"}, 
{ "code":"MRT", "city":"Moroak","lat":"-14.818133","lng":"133.700594","name":"Moroak Airport"}, 
{ "code":"OBM", "city":"Morobe","lat":"-7.74","lng":"147.59","name":"Morobe Airport"}, 
{ "code":"MYA", "city":"Moruya","lat":"-35.8978004456","lng":"150.143997192","name":"Moruya Airport"}, 
{ "code":"TGN", "city":"Morwell","lat":"-38.211004","lng":"146.470817","name":"Latrobe Valley Airport"}, 
{ "code":"GUV", "city":"Mougulu","lat":"-6.280859","lng":"142.420775","name":"Mougulu Airport"}, 
{ "code":"PXH", "city":"Mount Eba","lat":"-29.716","lng":"135.5244","name":"Prominent Hill Airport"}, 
{ "code":"MGB", "city":"Mount Gambier","lat":"-37.744382","lng":"140.780561","name":"Mount Gambier Airport"}, 
{ "code":"GPD", "city":"Mount Gordon Mine","lat":"-19.77265","lng":"139.40425","name":"Mount Gordon Airport"}, 
{ "code":"GSN", "city":"Mount Gunson","lat":"-31.4597","lng":"137.174443333","name":"Mount Gunson Airport"}, 
{ "code":"HGU", "city":"Mount Hagen","lat":"-5.828212","lng":"144.299412","name":"Mount Hagen Kagamuga Airport"}, 
{ "code":"MHU", "city":"Mount Hotham","lat":"-37.0475006104","lng":"147.333999634","name":"Mount Hotham Airport"}, 
{ "code":"ISA", "city":"Mount Isa","lat":"-20.66638","lng":"139.488468","name":"Mount Isa Airport"}, 
{ "code":"MUQ", "city":"Muccan Station","lat":"-20.658899307251","lng":"120.067001342773","name":"Muccan Station Airport"}, 
{ "code":"DGE", "city":"Mudgee","lat":"-32.564794","lng":"149.609452","name":"Mudgee Airport"}, 
{ "code":"MVK", "city":"Mulka","lat":"-28.3477993011475","lng":"138.649993896484","name":"Mulka Airport"}, 
{ "code":"MDM", "city":"Munduku","lat":"-4.6204","lng":"143.4516","name":"Munduku Airport"}, 
{ "code":"MNE", "city":"Mungeranie","lat":"-28.0091991424561","lng":"138.656997680664","name":"Mungeranie Airport"}, 
{ "code":"MYI", "city":"Murray Island","lat":"-9.915105","lng":"144.054644","name":"Murray Island Airport"}, 
{ "code":"WUI", "city":"Murrin Murrin","lat":"-28.705299","lng":"121.89099","name":"Murrin Murrin Airport"}, 
{ "code":"MVU", "city":"Musgrave","lat":"-14.7757","lng":"143.5047","name":"Musgrave Airport"}, 
{ "code":"MWU", "city":"Mussau Island","lat":"-1.45","lng":"149.7","name":"Mussau Airport"}, 
{ "code":"NAN", "city":"Nadi","lat":"-17.7553997039795","lng":"177.442993164062","name":"Nadi International Airport"}, 
{ "code":"NDN", "city":"Nadunumu","lat":"-9.14355555556","lng":"147.68425","name":"Nadunumu Airport"}, 
{ "code":"NMN", "city":"Namane","lat":"-6.32183","lng":"145.070667","name":"Nomane Airport"}, 
{ "code":"ATN", "city":"Namatanai","lat":"-3.6695","lng":"152.438","name":"Namatanai Airport"}, 
{ "code":"NBA", "city":"Nambaiyufa","lat":"-6.2412","lng":"145.2424","name":"Nambaiyufa Airport"}, 
{ "code":"NBH", "city":"Nambucca Heads","lat":"-30.673058","lng":"152.984233","name":"Nambucca Heads Airport"}, 
{ "code":"NDI", "city":"Namudi","lat":"-9.47375","lng":"148.329416667","name":"Namudi Airport"}, 
{ "code":"PHR", "city":"Nanuku Auberge Resort","lat":"-18.2553","lng":"178.0492","name":"Nanuku Airport"}, 
{ "code":"NOO", "city":"Naoro Vilage","lat":"-9.254455","lng":"147.621352","name":"Naoro Airport"}, 
{ "code":"NPE", "city":"Napier","lat":"-39.465801","lng":"176.869995","name":"Hawke's Bay Airport"}, 
{ "code":"NPP", "city":"Napperby","lat":"-22.5312","lng":"132.7632","name":"Napperby Airport"}, 
{ "code":"NAA", "city":"Narrabri","lat":"-30.3192005157","lng":"149.82699585","name":"Narrabri Airport"}, 
{ "code":"NRA", "city":"Narrandera","lat":"-34.7022018433","lng":"146.511993408","name":"Narrandera Airport"}, 
{ "code":"NRG", "city":"Narrogin","lat":"-32.93","lng":"117.080002","name":"Narrogin Airport"}, 
{ "code":"DVR", "city":"Nauiyu","lat":"-13.749806","lng":"130.693878","name":"Daly River Airport"}, 
{ "code":"SUV", "city":"Nausori","lat":"-18.0433006286621","lng":"178.559005737305","name":"Nausori International Airport"}, 
{ "code":"GBF", "city":"Negarbo","lat":"-6.567778","lng":"144.703058","name":"Negarbo(Negabo) Airport"}, 
{ "code":"NSN", "city":"Nelson","lat":"-41.298302","lng":"173.220993","name":"Nelson Airport"}, 
{ "code":"PPX", "city":"Nepesi","lat":"-9.99","lng":"149.477","name":"Param Airport"}, 
{ "code":"PDC", "city":"Népoui","lat":"-21.316456","lng":"164.999399","name":"Mueo Airport"}, 
{ "code":"DXD", "city":"New Dixie","lat":"-15.1174944348","lng":"143.316049576","name":"Dixie Airport"}, 
{ "code":"NPL", "city":"New Plymouth","lat":"-39.0085983276367","lng":"174.179000854492","name":"New Plymouth Airport"}, 
{ "code":"ZNE", "city":"Newman","lat":"-23.4178009033","lng":"119.803001404","name":"Newman Airport"}, 
{ "code":"NRY", "city":"Newry","lat":"-16.0442","lng":"129.2638","name":"Newry Airport"}, 
{ "code":"NGI", "city":"Ngau","lat":"-18.1156005859","lng":"179.339996338","name":"Ngau Airport"}, 
{ "code":"GOV", "city":"Nhulunbuy","lat":"-12.2693996429","lng":"136.817993164","name":"Gove Airport"}, 
{ "code":"NPG", "city":"Nipa","lat":"-6.1454","lng":"143.4531","name":"Nipa Airport"}, 
{ "code":"IIS", "city":"Nissan Island","lat":"-4.49972009659","lng":"154.225997925","name":"Nissan Island Airport"}, 
{ "code":"NOM", "city":"Nomad River","lat":"-6.294","lng":"142.234167","name":"Nomad River Airport"}, 
{ "code":"NTN", "city":"Normanton","lat":"-17.68409","lng":"141.069664","name":"Normanton Airport"}, 
{ "code":"NSM", "city":"Norseman","lat":"-32.203","lng":"121.758127","name":"Norseman Aerodrome"}, 
{ "code":"SRR", "city":"North Stradbroke Island","lat":"-27.519005","lng":"153.427618","name":"Dunwich Airport"}, 
{ "code":"GEA", "city":"Nouméa","lat":"-22.25812","lng":"166.472783","name":"Nouméa Magenta Airport"}, 
{ "code":"NOU", "city":"Nouméa (La Tontouta)","lat":"-22.014601","lng":"166.212997","name":"La Tontouta International Airport"}, 
{ "code":"NWT", "city":"Nowata","lat":"-9.98416666667","lng":"149.729166667","name":"Nowata Airport"}, 
{ "code":"NOA", "city":"Nowra Hill","lat":"-34.9466","lng":"150.542451","name":"Naval Air Station Nowra - HMAS Albatross"}, 
{ "code":"NUG", "city":"Nuguria Island","lat":"-3.4075","lng":"154.7383","name":"Nuguria Airstrip"}, 
{ "code":"UKU", "city":"Nuku","lat":"-3.676651","lng":"142.484334","name":"Nuku Airport"}, 
{ "code":"UTD", "city":"Nutwood Downs","lat":"-15.8074","lng":"134.1459","name":"Nutwood Downs Airport"}, 
{ "code":"SZS", "city":"Oban","lat":"-46.8997","lng":"168.100998","name":"Ryan's Creek Aerodrome"}, 
{ "code":"OBX", "city":"Obo","lat":"-7.59062242137","lng":"141.324262619","name":"Obo Airport"}, 
{ "code":"OFU", "city":"Ofu","lat":"-14.1844","lng":"-169.669998","name":"Ofu Airport"}, 
{ "code":"OKV", "city":"Okao","lat":"-5.55666666667","lng":"141.032777778","name":"Okao Airport"}, 
{ "code":"OKP", "city":"Oksapmin","lat":"-5.2261","lng":"142.2259","name":"Oksapmin Airport"}, 
{ "code":"OLQ", "city":"Olsobip","lat":"-5.38972222222","lng":"141.515277778","name":"Olsobip Airport"}, 
{ "code":"OLP", "city":"Olympic Dam","lat":"-30.483861","lng":"136.876699","name":"Olympic Dam Airport"}, 
{ "code":"OSE", "city":"Omora","lat":"-7.82777777778","lng":"147.080638889","name":"Omora Airport"}, 
{ "code":"ONB", "city":"Onange Mission","lat":"-8.67436111111","lng":"147.262416667","name":"Ononge Airport"}, 
{ "code":"ONU", "city":"Ono-i-Lau","lat":"-20.6589","lng":"-178.7411","name":"Ono-i-Lau Airport"}, 
{ "code":"FVR", "city":"Oombulgurri","lat":"-15.1647","lng":"127.8401","name":"Oombulgurri Airport"}, 
{ "code":"OAG", "city":"Orange","lat":"-33.382014","lng":"149.131262","name":"Orange Airport"}, 
{ "code":"OKB", "city":"Orchid Beach","lat":"-24.959400177002","lng":"153.31500244141","name":"Orchid Beach Airport"}, 
{ "code":"ODR", "city":"Ord River","lat":"-17.340799331665","lng":"128.912002563477","name":"Ord River Airport"}, 
{ "code":"OXO", "city":"Orientos","lat":"-28.0598","lng":"141.5361","name":"Orientos Airport"}, 
{ "code":"OSG", "city":"Ossima","lat":"-2.91555555556","lng":"141.297305556","name":"Ossima Airport"}, 
{ "code":"UVE", "city":"Ouvéa","lat":"-20.640932","lng":"166.573024","name":"Ouvéa Airport"}, 
{ "code":"OYN", "city":"Ouyen","lat":"-35.088819","lng":"142.354778","name":"Ouyen Airport"}, 
{ "code":"PPG", "city":"Pago Pago","lat":"-14.331","lng":"-170.710007","name":"Pago Pago International Airport"}, 
{ "code":"PLE", "city":"Paiela","lat":"-5.372407","lng":"142.975774","name":"Paiela Airport"}, 
{ "code":"DFP", "city":"Palmer","lat":"-16.052124","lng":"143.013339","name":"Drumduff Airport"}, 
{ "code":"PMR", "city":"Palmerston North","lat":"-40.320599","lng":"175.617004","name":"Palmerston North Airport"}, 
{ "code":"PGN", "city":"Pangia","lat":"-6.386","lng":"144.1084","name":"Pangia Airport"}, 
{ "code":"PGB", "city":"Pangoa","lat":"-7.0226","lng":"141.5605","name":"Pangoa Airport"}, 
{ "code":"PBO", "city":"Paraburdoo","lat":"-23.1711006165","lng":"117.745002747","name":"Paraburdoo Airport"}, 
{ "code":"PRD", "city":"Pardoo","lat":"-20.119428","lng":"119.571945","name":"Pardoo Airport"}, 
{ "code":"PKE", "city":"Parkes","lat":"-33.131401062","lng":"148.238998413","name":"Parkes Airport"}, 
{ "code":"PEY", "city":"Penong","lat":"-31.916700363159","lng":"133","name":"Penong Airport"}, 
{ "code":"PEP", "city":"Peppimenarti","lat":"-14.1442","lng":"130.091003","name":"Peppimenarti Airport"}, 
{ "code":"PER", "city":"Perth","lat":"-31.940299987793","lng":"115.967002868652","name":"Perth International Airport"}, 
{ "code":"JAD", "city":"Perth","lat":"-32.0974998474121","lng":"115.880996704102","name":"Perth Jandakot Airport"}, 
{ "code":"KBJ", "city":"Petermann","lat":"-24.260229","lng":"131.488924","name":"Kings Canyon Airport"}, 
{ "code":"KCS", "city":"Petermann","lat":"-24.421285","lng":"131.819458","name":"Kings Creek Airport"}, 
{ "code":"PHQ", "city":"Phosphate Hill","lat":"-21.811100006104","lng":"139.92399597168","name":"The Monument Airport"}, 
{ "code":"PMP", "city":"Pimaga","lat":"-6.49916666667","lng":"143.510277778","name":"Pimaga Airport"}, 
{ "code":"PDI", "city":"Pindiu","lat":"-6.44513888889","lng":"147.515833333","name":"Pindiu Airport"}, 
{ "code":"GPN", "city":"Pirlangimpi","lat":"-11.399686","lng":"130.425568","name":"Garden Point Airport"}, 
{ "code":"PNP", "city":"Popondetta","lat":"-8.80453968048","lng":"148.309005737","name":"Girua Airport"}, 
{ "code":"EDR", "city":"Pormpuraaw","lat":"-14.896451","lng":"141.60908","name":"Pormpuraaw Airport"}, 
{ "code":"DOX", "city":"Port Denison","lat":"-29.298128","lng":"114.927334","name":"Dongara Airport"}, 
{ "code":"PHE", "city":"Port Hedland","lat":"-20.3777999878","lng":"118.625999451","name":"Port Hedland International Airport"}, 
{ "code":"PLO", "city":"Port Lincoln","lat":"-34.6053009033","lng":"135.880004883","name":"Port Lincoln Airport"}, 
{ "code":"PQQ", "city":"Port Macquarie","lat":"-31.4358005524","lng":"152.863006592","name":"Port Macquarie Airport"}, 
{ "code":"POM", "city":"Port Moresby","lat":"-9.44338035583496","lng":"147.220001220703","name":"Port Moresby Jacksons International Airport"}, 
{ "code":"PPP", "city":"Proserpine","lat":"-20.494416","lng":"148.553583","name":"Proserpine Whitsunday Coast Airport"}, 
{ "code":"PUA", "city":"Puas Mission","lat":"-2.395","lng":"150.2361","name":"Puas Airport"}, 
{ "code":"PMN", "city":"Pumani","lat":"-9.7469","lng":"149.4766","name":"Pumani Airport"}, 
{ "code":"BXF", "city":"Pumululu National Park","lat":"-17.545","lng":"128.305","name":"Bellburn Airstrip"}, 
{ "code":"WLU", "city":"Puri","lat":"-6.475161","lng":"143.987222","name":"Walluanda Airport"}, 
{ "code":"ZQN", "city":"Queenstown","lat":"-45.021099","lng":"168.738998","name":"Queenstown International Airport"}, 
{ "code":"RBP", "city":"Rabaraba","lat":"-9.97111111111","lng":"149.832222222","name":"Raba Raba Airport"}, 
{ "code":"RBI", "city":"Rabi Island","lat":"-16.5337","lng":"179.9757","name":"Rabi Island Airport"}, 
{ "code":"RAG", "city":"Raglan","lat":"-37.804699","lng":"174.860001","name":"Raglan Aerodrome"}, 
{ "code":"RAA", "city":"Rakanda","lat":"-4.2096","lng":"152.4385","name":"Rakanda Airport"}, 
{ "code":"XRH", "city":"Richmond","lat":"-33.604652","lng":"150.783051","name":"RAAF Base Richmond"}, 
{ "code":"RBC", "city":"Robinvale","lat":"-34.642887","lng":"142.773042","name":"Robinvale Airport"}, 
{ "code":"ROK", "city":"Rockhampton","lat":"-23.380019","lng":"150.475359","name":"Rockhampton Airport"}, 
{ "code":"RDA", "city":"Rockhampton Downs","lat":"-18.9533004760742","lng":"135.20100402832","name":"Rockhampton Downs Airport"}, 
{ "code":"RBU", "city":"Roebourne","lat":"-20.763898","lng":"117.155199","name":"Roebourne Airport"}, 
{ "code":"RKY", "city":"Rokeby","lat":"-13.6434","lng":"142.641","name":"Rokeby Airport"}, 
{ "code":"RMA", "city":"Roma","lat":"-26.5450000763","lng":"148.774993896","name":"Roma Airport"}, 
{ "code":"RPB", "city":"Roper Bar","lat":"-14.734814","lng":"134.525485","name":"Roper Bar Airport"}, 
{ "code":"RPV", "city":"Roper Valley","lat":"-14.9215","lng":"134.05","name":"Roper Valley Airport"}, 
{ "code":"RLP", "city":"Rosella Plains","lat":"-18.4253","lng":"144.4587","name":"Rosella Plains Airport"}, 
{ "code":"ROT", "city":"Rotorua","lat":"-38.1092","lng":"176.317001","name":"Rotorua Regional Airport"}, 
{ "code":"RTA", "city":"Rotuma","lat":"-12.4825000762939","lng":"177.070999145508","name":"Rotuma Airport"}, 
{ "code":"SBV", "city":"Sabah","lat":"-5.5765","lng":"155.0489","name":"Sabah Airport"}, 
{ "code":"SFU", "city":"Safia","lat":"-9.59305555556","lng":"148.636111111","name":"Safia Airport"}, 
{ "code":"SBR", "city":"Saibai Island","lat":"-9.37833","lng":"142.625","name":"Saibai Island Airport"}, 
{ "code":"SDI", "city":"Saidor","lat":"-5.62713888889","lng":"146.462777778","name":"Saidor Airport"}, 
{ "code":"SAM", "city":"Salamo","lat":"-9.6701","lng":"150.7903","name":"Salamo Airport"}, 
{ "code":"SXE", "city":"Sale","lat":"-38.090827","lng":"146.965335","name":"West Sale Airport"}, 
{ "code":"SQT", "city":"Samarai Island","lat":"-10.5627777778","lng":"150.690694444","name":"China Strait Airstrip"}, 
{ "code":"SRM", "city":"Sandringham Station","lat":"-24.0568","lng":"139.0821","name":"Sandringham Airport"}, 
{ "code":"NDS", "city":"Sandstone","lat":"-27.9799995422363","lng":"119.296997070312","name":"Sandstone Airport"}, 
{ "code":"SMH", "city":"Sapmanga","lat":"-6.07527777778","lng":"146.811111111","name":"Sapmanga Airport"}, 
{ "code":"TDS", "city":"Sasereme","lat":"-7.6217","lng":"142.868","name":"Sasereme Airport"}, 
{ "code":"SWG", "city":"Satwag","lat":"-6.13955555556","lng":"147.279166667","name":"Satwag Airport"}, 
{ "code":"SXW", "city":"Sauren","lat":"-5.9701","lng":"148.8543","name":"Sauren Airport"}, 
{ "code":"SVU", "city":"Savusavu","lat":"-16.803394","lng":"179.340587","name":"Savusavu Airport"}, 
{ "code":"SXH", "city":"Sehulea","lat":"-9.96452777778","lng":"151.161861111","name":"Sehulea Airport"}, 
{ "code":"SBC", "city":"Selbang","lat":"-5.315","lng":"141.752","name":"Selbang Airport"}, 
{ "code":"SGK", "city":"Sengapi","lat":"-5.12583333333","lng":"144.323611111","name":"Sengapi Airstrip"}, 
{ "code":"SPV", "city":"Sepik Plains","lat":"-3.8821","lng":"143.6734","name":"Sepik Plains Airport"}, 
{ "code":"SWB", "city":"Shaw River","lat":"-21.5102996826172","lng":"119.361999511719","name":"Shaw River Airport"}, 
{ "code":"SGP", "city":"Shay Gap","lat":"-20.4247","lng":"120.140999","name":"Shay Gap Airport"}, 
{ "code":"HAT", "city":"Shelburne","lat":"-11.7369","lng":"142.576996","name":"Heathlands Airport"}, 
{ "code":"WSY", "city":"Shute Harbour","lat":"-20.276127","lng":"148.754979","name":"Shute Harbour/Whitsunday Airport"}, 
{ "code":"SXA", "city":"Sialum","lat":"-6.0908","lng":"147.5955","name":"Sialum Airport"}, 
{ "code":"SSS", "city":"Siassi","lat":"-5.5965","lng":"147.8106","name":"Siassi Airport"}, 
{ "code":"SIL", "city":"Sila Mission","lat":"-9.07355555556","lng":"148.38925","name":"Sila Airport"}, 
{ "code":"SWR", "city":"Silur Mission","lat":"-4.52988888889","lng":"153.054444444","name":"Silur Airport"}, 
{ "code":"SSP", "city":"Silver Plains","lat":"-13.9754","lng":"143.5537","name":"Silver Plains Airport"}, 
{ "code":"SMJ", "city":"Sim","lat":"-7.75","lng":"146.9273","name":"Sim Airport"}, 
{ "code":"SIM", "city":"Simbai","lat":"-5.27861111111","lng":"144.544722222","name":"Simbai Airport"}, 
{ "code":"NIS", "city":"Simberi Island","lat":"-2.66222222222","lng":"151.997777778","name":"Simberi Airport"}, 
{ "code":"SIX", "city":"Singleton","lat":"-32.600832","lng":"151.193056","name":"Singleton Airport"}, 
{ "code":"SIZ", "city":"Sissano","lat":"-2.99944444444","lng":"142.0445","name":"Sissano Airport"}, 
{ "code":"SWE", "city":"Siwea","lat":"-6.284181","lng":"147.582371","name":"Siwea Airport"}, 
{ "code":"SPH", "city":"Sopu","lat":"-8.3038","lng":"147.1659","name":"Sopu Airport"}, 
{ "code":"ZVG", "city":"Springvale","lat":"-17.7869","lng":"127.669998","name":"Springvale Airport"}, 
{ "code":"SMP", "city":"Stockholm","lat":"-4.35","lng":"151.55","name":"Stockholm Landing Strip"}, 
{ "code":"STH", "city":"Strathmore","lat":"-17.862709","lng":"142.557788","name":"Strathmore Airport"}, 
{ "code":"SSK", "city":"Sturt Creek","lat":"-19.1664009094238","lng":"128.17399597168","name":"Sturt Creek Airport"}, 
{ "code":"TGL", "city":"Sudest Island","lat":"-11.3311111111","lng":"153.202916667","name":"Tagula Airport"}, 
{ "code":"SYU", "city":"Sue Islet","lat":"-10.2082996368408","lng":"142.824996948242","name":"Warraber Island Airport"}, 
{ "code":"SKC", "city":"Suki","lat":"-8.0466","lng":"141.7222","name":"Suki Airport"}, 
{ "code":"ULE", "city":"Sule","lat":"-4.9747200012207","lng":"151.296997070312","name":"Sule Airport"}, 
{ "code":"BWU", "city":"Sydney","lat":"-33.923618","lng":"150.990792","name":"Sydney Bankstown Airport"}, 
{ "code":"SYD", "city":"Sydney (Mascot)","lat":"-33.946098","lng":"151.177002","name":"Sydney Kingsford Smith International Airport"}, 
{ "code":"TBG", "city":"Tabubil","lat":"-5.280471","lng":"141.227576","name":"Tabubil Airport"}, 
{ "code":"THH", "city":"Taharoa","lat":"-38.1810989379883","lng":"174.707992553711","name":"Taharoa Aerodrome"}, 
{ "code":"TLW", "city":"Talasea","lat":"-5.2726","lng":"150.0089","name":"Talasea Airport"}, 
{ "code":"TMW", "city":"Tamworth","lat":"-31.077898","lng":"150.845484","name":"Tamworth Airport"}, 
{ "code":"AAB", "city":"Tanbar","lat":"-26.69639","lng":"141.048718","name":"Arrabury Airport"}, 
{ "code":"TXR", "city":"Tanbar Station","lat":"-25.847799301147","lng":"141.92799377441","name":"Tanbar Airport"}, 
{ "code":"TPI", "city":"Tapini","lat":"-8.35666666667","lng":"146.989166667","name":"Tapini Airport"}, 
{ "code":"TBQ", "city":"Tarabo","lat":"-6.46666666667","lng":"145.532222222","name":"Tarabo Airport"}, 
{ "code":"TRJ", "city":"Tarakbits","lat":"-5.614","lng":"141.0421","name":"Tarakbits Airport"}, 
{ "code":"TAQ", "city":"Tarcoola","lat":"-30.702871","lng":"134.58282","name":"Tarcoola Airport"}, 
{ "code":"TRO", "city":"Taree","lat":"-31.888599","lng":"152.514008","name":"Taree Airport"}, 
{ "code":"TIZ", "city":"Tari","lat":"-5.845","lng":"142.947998","name":"Tari Airport"}, 
{ "code":"MPU", "city":"Tatau Island","lat":"-2.81138888889","lng":"151.991111111","name":"Mapua(Mabua) Airport"}, 
{ "code":"TUO", "city":"Taupo","lat":"-38.7397003173828","lng":"176.083999633789","name":"Taupo Airport"}, 
{ "code":"TRG", "city":"Tauranga","lat":"-37.6719017028809","lng":"176.195999145508","name":"Tauranga Airport"}, 
{ "code":"TWY", "city":"Tawa","lat":"-7.4463","lng":"146.1067","name":"Tawa Airport"}, 
{ "code":"CHT", "city":"Te One","lat":"-43.81189","lng":"-176.46514","name":"Chatham Islands / Tuuta Airport"}, 
{ "code":"TKB", "city":"Tekadu","lat":"-7.6808","lng":"146.5503","name":"Tekadu Airport"}, 
{ "code":"TKW", "city":"Tekin","lat":"-5.243667","lng":"142.165194","name":"Tekin Airport"}, 
{ "code":"TFM", "city":"Telefomin","lat":"-5.12608","lng":"141.641922","name":"Telefomin Airport"}, 
{ "code":"TEM", "city":"Temora","lat":"-34.421398","lng":"147.511993","name":"Temora Airport"}, 
{ "code":"TCA", "city":"Tennant Creek","lat":"-19.6343994140625","lng":"134.182998657227","name":"Tennant Creek Airport"}, 
{ "code":"TEP", "city":"Teptep","lat":"-5.9553","lng":"146.5595","name":"Tep Tep Airport"}, 
{ "code":"TEO", "city":"Terapo Mission","lat":"-8.16972222222","lng":"146.194444444","name":"Terapo Airport"}, 
{ "code":"TDB", "city":"Tetebedi","lat":"-9.1586","lng":"148.0686","name":"Tetebedi Airport"}, 
{ "code":"XTG", "city":"Thargomindah","lat":"-27.986368","lng":"143.812065","name":"Thargomindah Airport"}, 
{ "code":"GTS", "city":"The Granites Gold Mine","lat":"-20.5483","lng":"130.347","name":"The Granites Airport"}, 
{ "code":"TFB", "city":"Tifalmin","lat":"-5.117249","lng":"141.418076","name":"Tifalmin Airport"}, 
{ "code":"TGJ", "city":"Tiga","lat":"-21.096407","lng":"167.80379","name":"Tiga Airport"}, 
{ "code":"TBE", "city":"Timbunke","lat":"-4.196633","lng":"143.519222","name":"Timbunke Airport"}, 
{ "code":"TCK", "city":"Tinboli","lat":"-4.0949","lng":"143.3838","name":"Tinboli Airport"}, 
{ "code":"TYP", "city":"Tobermorey","lat":"-22.2558002471924","lng":"137.953002929687","name":"Tobermorey Airport"}, 
{ "code":"TKZ", "city":"Tokoroa","lat":"-38.236698","lng":"175.891998","name":"Tokoroa Airfield"}, 
{ "code":"TLO", "city":"Tol","lat":"-4.98083019257","lng":"152.009994507","name":"Tol Airport"}, 
{ "code":"TPR", "city":"Tom Price","lat":"-22.7460002899","lng":"117.869003296","name":"Tom Price Airport"}, 
{ "code":"TON", "city":"Tonu","lat":"-6.6552","lng":"155.4326","name":"Tonu Airport"}, 
{ "code":"WTB", "city":"Toowoomba","lat":"-27.558332","lng":"151.793335","name":"Toowoomba Wellcamp Airport"}, 
{ "code":"TWB", "city":"Toowoomba","lat":"-27.543365","lng":"151.919112","name":"Toowoomba Airport"}, 
{ "code":"TCJ", "city":"Torembi","lat":"-4.0165","lng":"143.1329","name":"Torembi Airport"}, 
{ "code":"TOK", "city":"Torokina","lat":"-6.2015","lng":"155.063","name":"Torokina Airport"}, 
{ "code":"TWP", "city":"Torwood","lat":"-17.3633003234863","lng":"143.75","name":"Torwood Airport"}, 
{ "code":"TOU", "city":"Touho","lat":"-20.790127","lng":"165.259524","name":"Touho Airport"}, 
{ "code":"TSV", "city":"Townsville","lat":"-19.252904","lng":"146.766512","name":"Townsville Airport / RAAF Base Townsville"}, 
{ "code":"TQP", "city":"Trepell","lat":"-21.834999084473","lng":"140.88800048828","name":"Trepell Airport"}, 
{ "code":"TSW", "city":"Tsewi","lat":"-7.0695","lng":"146.1272","name":"Tsewi Airport"}, 
{ "code":"TSI", "city":"Tsile Tsile","lat":"-6.8498","lng":"146.3554","name":"Tsile Tsile Airport"}, 
{ "code":"TFI", "city":"Tufi","lat":"-9.07595443726","lng":"149.319839478","name":"Tufi Airport"}, 
{ "code":"TLP", "city":"Tumolbil","lat":"-4.7748","lng":"141.0133","name":"Tumolbil Airport"}, 
{ "code":"TUM", "city":"Tumut","lat":"-35.26832","lng":"148.240526","name":"Tumut Aerodrome"}, 
{ "code":"TKY", "city":"Turkey Creek","lat":"-17.0408000946","lng":"128.205993652","name":"Turkey Creek Airport"}, 
{ "code":"TWZ", "city":"Twitzel","lat":"-44.2350006104","lng":"170.117996216","name":"Pukaki Airport"}, 
{ "code":"UMC", "city":"Umba","lat":"-7.0214","lng":"145.966","name":"Umba Airport"}, 
{ "code":"UDA", "city":"Undara","lat":"-18.19134","lng":"144.61224","name":"Undara Airport"}, 
{ "code":"BAJ", "city":"Unea Island","lat":"-4.88333333333","lng":"149.133333333","name":"Bali Airport"}, 
{ "code":"UPR", "city":"Upiara","lat":"-8.5411","lng":"142.6503","name":"Upiara Airport"}, 
{ "code":"URU", "city":"Uroubi","lat":"-9.5162","lng":"148.5591","name":"Uroubi Airport"}, 
{ "code":"USL", "city":"Useless Loop","lat":"-26.157923","lng":"113.394817","name":"Useless Loop Airport"}, 
{ "code":"UVO", "city":"Uvol","lat":"-6.0178","lng":"150.9557","name":"Uvol Airport"}, 
{ "code":"VAI", "city":"Vanimo","lat":"-2.6926","lng":"141.3028","name":"Vanimo Airport"}, 
{ "code":"VBV", "city":"Vanua Balavu","lat":"-17.2689990997314","lng":"-178.975997924805","name":"Vanua Balavu Airport"}, 
{ "code":"VTF", "city":"Vatulele","lat":"-18.5125007629395","lng":"177.639007568359","name":"Vatulele Airport"}, 
{ "code":"VCD", "city":"Victoria River","lat":"-16.402124","lng":"131.004974","name":"Victoria River Downs Airport"}, 
{ "code":"VIV", "city":"Vivigani","lat":"-9.30333333333","lng":"150.318888889","name":"Vivigani Airfield"}, 
{ "code":"KDV", "city":"Vunisea","lat":"-19.0580997467","lng":"178.156997681","name":"Vunisea Airport"}, 
{ "code":"BMY", "city":"Waala","lat":"-19.720521","lng":"163.661077","name":"Île Art - Waala Airport"}, 
{ "code":"WAO", "city":"Wabo","lat":"-6.98944444444","lng":"145.075111111","name":"Wabo Airport"}, 
{ "code":"PKT", "city":"Wadeye","lat":"-14.249701","lng":"129.529538","name":"Port Keats Airport"}, 
{ "code":"WIK", "city":"Waiheke Island","lat":"-36.808899","lng":"175.085999","name":"Waiheke Island Aerodrome"}, 
{ "code":"WIR", "city":"Wairoa","lat":"-39.012118","lng":"177.404395","name":"Wairoa Airport"}, 
{ "code":"KAY", "city":"Wakaya Island","lat":"-17.617000579834","lng":"179.016998291016","name":"Wakaya Island Airport"}, 
{ "code":"WKN", "city":"Wakunai","lat":"-5.8603","lng":"155.2223","name":"Wakunai Airport"}, 
{ "code":"WLS", "city":"Wallis Island","lat":"-13.2383003235","lng":"-176.199005127","name":"Hihifo Airport"}, 
{ "code":"WKA", "city":"Wanaka","lat":"-44.722954","lng":"169.248419","name":"Wanaka Airport"}, 
{ "code":"MFL", "city":"Wando Vale","lat":"-19.67","lng":"144.8852","name":"Mount Full Stop Airport"}, 
{ "code":"WAG", "city":"Wanganui","lat":"-39.963467","lng":"175.02444","name":"Wanganui Airport"}, 
{ "code":"CXQ", "city":"Wangkat Jungka","lat":"-18.8728","lng":"125.934","name":"Christmas Creek Station Airport"}, 
{ "code":"AGL", "city":"Wanigela","lat":"-9.3375","lng":"149.155556","name":"Wanigela Airport"}, 
{ "code":"WTT", "city":"Wantoat","lat":"-6.1325","lng":"146.467777778","name":"Wantoat Airport"}, 
{ "code":"WNU", "city":"Wanuma","lat":"-4.8961","lng":"145.3213","name":"Wanuma Airport"}, 
{ "code":"WBM", "city":"Wapenamanda","lat":"-5.635293","lng":"143.892231","name":"Wapenamanda Airport"}, 
{ "code":"WBC", "city":"Wapolu","lat":"-9.3376","lng":"150.5093","name":"Wapolu Airport"}, 
{ "code":"WSU", "city":"Wasu","lat":"-5.96170944919","lng":"147.19822526","name":"Wasu Airport"}, 
{ "code":"WSA", "city":"Wasua","lat":"-8.2836","lng":"142.8697","name":"Wasua Airport"}, 
{ "code":"WUM", "city":"Wasum","lat":"-6.0491","lng":"149.337","name":"Wasum Airport"}, 
{ "code":"WUG", "city":"Wau","lat":"-7.345556","lng":"146.718611","name":"Wau Airport"}, 
{ "code":"WAU", "city":"Wauchope","lat":"-20.640614","lng":"134.215276","name":"Wauchope Airport"}, 
{ "code":"WAN", "city":"Waverney","lat":"-25.3563","lng":"141.9254","name":"Waverney Airport"}, 
{ "code":"WAJ", "city":"Wavoi Falls","lat":"-6.9523","lng":"142.6557","name":"Wawoi Falls Airport"}, 
{ "code":"WEP", "city":"Weam","lat":"-8.6184","lng":"141.1381","name":"Weam Airport"}, 
{ "code":"WED", "city":"Wedau","lat":"-10.0954","lng":"150.0826","name":"Wedau Airport"}, 
{ "code":"WEI", "city":"Weipa","lat":"-12.677493","lng":"141.922618","name":"Weipa Airport"}, 
{ "code":"WLG", "city":"Wellington","lat":"-41.327202","lng":"174.804993","name":"Wellington International Airport"}, 
{ "code":"WHL", "city":"Welshpool","lat":"-38.682382","lng":"146.445331","name":"Welshpool Airport"}, 
{ "code":"WWY", "city":"West Wyalong","lat":"-33.9371986389","lng":"147.190994263","name":"West Wyalong Airport"}, 
{ "code":"WSZ", "city":"Westport","lat":"-41.737111","lng":"171.579033","name":"Westport Airport"}, 
{ "code":"WWK", "city":"Wewak","lat":"-3.58383011818","lng":"143.669006348","name":"Wewak International Airport"}, 
{ "code":"WRE", "city":"Whangarei","lat":"-35.769253","lng":"174.363713","name":"Whangarei Airport"}, 
{ "code":"FLS", "city":"Whitemark","lat":"-40.091702","lng":"147.992996","name":"Flinders Island Airport"}, 
{ "code":"WTZ", "city":"Whitianga","lat":"-36.828731","lng":"175.682802","name":"Whitianga Airport"}, 
{ "code":"WYA", "city":"Whyalla","lat":"-33.0588989257812","lng":"137.514007568359","name":"Whyalla Airport"}, 
{ "code":"NTL", "city":"Williamtown","lat":"-32.7949981689453","lng":"151.833999633789","name":"Newcastle Airport"}, 
{ "code":"WRN", "city":"Windarling Mine","lat":"-30.032277","lng":"119.386489","name":"Windarling Airport"}, 
{ "code":"WNR", "city":"Windorah","lat":"-25.410641","lng":"142.668428","name":"Windorah Airport"}, 
{ "code":"WPM", "city":"Wipim","lat":"-8.78822","lng":"142.882004","name":"Wipim Airport"}, 
{ "code":"GYB", "city":"Wodgina","lat":"-21.036568","lng":"118.642936","name":"Port Hedland/Wodgina Airport"}, 
{ "code":"WON", "city":"Wondoola","lat":"-18.5750007629","lng":"140.891998291","name":"Wondoola Airport"}, 
{ "code":"WOA", "city":"Wonenara","lat":"-6.79686111111","lng":"145.891944444","name":"Wonenara Airport"}, 
{ "code":"WWI", "city":"Woodie Woodie","lat":"-21.64551","lng":"121.191184","name":"Woodie Woodie Airport"}, 
{ "code":"GAZ", "city":"Woodlark (Muyua) Island","lat":"-9.225918","lng":"152.944352","name":"Guasopa Airport"}, 
{ "code":"UMR", "city":"Woomera","lat":"-31.144199","lng":"136.817001","name":"Woomera Airfield"}, 
{ "code":"WPK", "city":"Wrotham Park","lat":"-16.658915","lng":"143.999263","name":"Wrotham Park Airport"}, 
{ "code":"BVZ", "city":"Wunaamin Miliwundi Ranges","lat":"-16.732756","lng":"125.439105","name":"Beverley Springs Airport"}, 
{ "code":"MBN", "city":"Wunaamin Miliwundi Ranges","lat":"-16.741453","lng":"125.905608","name":"Mount Barnett Airport"}, 
{ "code":"MHO", "city":"Wunaamin Miliwundi Ranges","lat":"-17.051917","lng":"125.712491","name":"Mount House Airport"}, 
{ "code":"BRT", "city":"Wurrumiyanga","lat":"-11.764966","lng":"130.615774","name":"Bathurst Island Airport"}, 
{ "code":"WUV", "city":"Wuvulu Island","lat":"-1.73611111111","lng":"142.836666667","name":"Wuvulu Island Airport"}, 
{ "code":"RTP", "city":"Yagoonya","lat":"-15.644963","lng":"141.844373","name":"Rutland Plains Airport"}, 
{ "code":"KYI", "city":"Yalata Mission","lat":"-31.4706","lng":"131.824997","name":"Yalata Mission Airport"}, 
{ "code":"YLG", "city":"Yalgoo","lat":"-28.3553009033","lng":"116.683998108","name":"Yalgoo Airport"}, 
{ "code":"KYX", "city":"Yalumet","lat":"-6.09","lng":"147.0117","name":"Yalumet Airport"}, 
{ "code":"XMY", "city":"Yam Island","lat":"-9.899187","lng":"142.774265","name":"Yam Island Airport"}, 
{ "code":"YAS", "city":"Yasawa Island","lat":"-16.7589","lng":"177.544998","name":"Yasawa Island Airport"}, 
{ "code":"KSX", "city":"Yasuru","lat":"-6.6015","lng":"146.1813","name":"Yasuru Airport"}, 
{ "code":"XYR", "city":"Yellow River Mission","lat":"-3.883986","lng":"141.792234","name":"Edwaki Airport"}, 
{ "code":"YVD", "city":"Yeva","lat":"-7.548","lng":"146.188","name":"Yeva Airport"}, 
{ "code":"KGH", "city":"Yongai","lat":"-8.5289","lng":"147.4603","name":"Yongai Airport"}, 
{ "code":"OKR", "city":"Yorke Island","lat":"-9.752801","lng":"143.405673","name":"Yorke Island Airport"}, 
{ "code":"AYQ", "city":"Yulara","lat":"-25.185913","lng":"130.97703","name":"Ayers Rock Connellan Airport"}, 
{ "code":"RKU", "city":"Yule Island","lat":"-8.817000054","lng":"146.5243833","name":"Kairuku Airport"}, 
{ "code":"ZEN", "city":"Zenag","lat":"-6.95222222222","lng":"146.61625","name":"Zenag Airport"}
]