[
{ "code":"ABF", "city":"Abaiang","lat":"1.79861","lng":"173.041","name":"Abaiang Airport"}, 
{ "code":"CIS", "city":"Abariringa","lat":"-2.76812005043","lng":"-171.710006714","name":"Canton Island Airport"}, 
{ "code":"AEA", "city":"Abemama","lat":"0.490759","lng":"173.830287","name":"Abemama Airport"}, 
{ "code":"MTV", "city":"Ablow","lat":"-13.666","lng":"167.712006","name":"Mota Lava Airport"}, 
{ "code":"AHE", "city":"Ahe Atoll","lat":"-14.4280996322632","lng":"-146.25700378418","name":"Ahe Airport"}, 
{ "code":"JAT", "city":"Ailinglapalap Atoll","lat":"7.749775","lng":"168.977838","name":"Jabot Airport"}, 
{ "code":"JEJ", "city":"Ailinglapalap Atoll","lat":"7.56535005569","lng":"168.962005615","name":"Jeh Airport"}, 
{ "code":"AIM", "city":"Ailuk Island","lat":"10.2168","lng":"169.983002","name":"Ailuk Airport"}, 
{ "code":"AIT", "city":"Aitutaki","lat":"-18.8309","lng":"-159.764008","name":"Aitutaki Airport"}, 
{ "code":"IUE", "city":"Alofi","lat":"-19.0790309906006","lng":"-169.925598144531","name":"Niue International Airport"}, 
{ "code":"ULB", "city":"Ambrym Island","lat":"-16.3297","lng":"168.3011","name":"Uléi Airport"}, 
{ "code":"AAA", "city":"Anaa","lat":"-17.3526","lng":"-145.509995","name":"Anaa Airport"}, 
{ "code":"AUY", "city":"Anatom Island","lat":"-20.249142","lng":"169.770758","name":"Aneityum Airport"}, 
{ "code":"NFO", "city":"Angaha, Niuafo'ou Island","lat":"-15.570603","lng":"-175.631283","name":"Mata'aho Airport"}, 
{ "code":"AWD", "city":"Aniwa","lat":"-19.2346","lng":"169.6009","name":"Aniwa Airport"}, 
{ "code":"BNY", "city":"Anua","lat":"-11.3022222222","lng":"159.798333333","name":"Bellona/Anua Airport"}, 
{ "code":"APK", "city":"Apataki","lat":"-15.5736","lng":"-146.414993","name":"Apataki Airport"}, 
{ "code":"IMI", "city":"Arno Atoll","lat":"7.005553","lng":"171.656959","name":"Ine Airport"}, 
{ "code":"TIC", "city":"Arno Atoll","lat":"7.121768","lng":"171.911584","name":"Tinak Airport"}, 
{ "code":"RNA", "city":"Arona","lat":"-9.86054358262","lng":"161.979546547","name":"Ulawa Airport"}, 
{ "code":"AIS", "city":"Arorae Island","lat":"-2.616233","lng":"176.802209","name":"Arorae Island Airport"}, 
{ "code":"AIU", "city":"Atiu Island","lat":"-19.9678001403809","lng":"-158.119003295898","name":"Enua Airport"}, 
{ "code":"ATD", "city":"Atoifi","lat":"-8.87333","lng":"161.011002","name":"Uru Harbour Airport"}, 
{ "code":"AKS", "city":"Auki","lat":"-8.70257","lng":"160.682007","name":"Gwaunaru'u Airport"}, 
{ "code":"AUL", "city":"Aur Atoll","lat":"8.14528","lng":"171.173004","name":"Aur Island Airport"}, 
{ "code":"RAR", "city":"Avarua","lat":"-21.2027","lng":"-159.806","name":"Rarotonga International Airport"}, 
{ "code":"AVU", "city":"Avu Avu","lat":"-9.868333","lng":"160.410556","name":"Avu Avu Airport"}, 
{ "code":"ROR", "city":"Babelthuap Island","lat":"7.36731","lng":"134.544236","name":"Babelthuap Airport"}, 
{ "code":"BAS", "city":"Ballalae","lat":"-6.990745","lng":"155.886656","name":"Ballalae Airport"}, 
{ "code":"VEV", "city":"Barakoma","lat":"-7.91277980804443","lng":"156.705993652344","name":"Barakoma Airport"}, 
{ "code":"BPF", "city":"Batuna Mission Station","lat":"-8.56202777778","lng":"158.119305556","name":"Batuna Aerodrome"}, 
{ "code":"BEZ", "city":"Beru","lat":"-1.35472","lng":"176.007004","name":"Beru Airport"}, 
{ "code":"AIC", "city":"Bigatyelang Island","lat":"7.279422","lng":"168.8257","name":"Ailinglaplap Airok Airport"}, 
{ "code":"BII", "city":"Bikini Atoll","lat":"11.5225","lng":"165.565002","name":"Enyu Airfield"}, 
{ "code":"AFT", "city":"Bila","lat":"-9.191389","lng":"160.948611","name":"Afutara Aerodrome"}, 
{ "code":"AAK", "city":"Buariki","lat":"0.185278","lng":"173.636993","name":"Aranuka Airport"}, 
{ "code":"BBG", "city":"Butaritari","lat":"3.08583","lng":"172.811005","name":"Butaritari Airport"}, 
{ "code":"CHY", "city":"Choiseul Bay","lat":"-6.711944","lng":"156.396111","name":"Choiseul Bay Airport"}, 
{ "code":"CCV", "city":"Craig Cove","lat":"-16.264999","lng":"167.923996","name":"Craig Cove Airport"}, 
{ "code":"DLY", "city":"Dillon's Bay","lat":"-18.7694","lng":"169.001007","name":"Dillon's Bay Airport"}, 
{ "code":"EBN", "city":"Ebadon Island","lat":"9.33055973052979","lng":"166.820007324219","name":"Ebadon Airport"}, 
{ "code":"EBO", "city":"Ebon Atoll","lat":"4.5982","lng":"168.752","name":"Ebon Airport"}, 
{ "code":"EAE", "city":"Emae Island","lat":"-17.0903","lng":"168.343002","name":"Siwo Airport"}, 
{ "code":"EJT", "city":"Enejit Island","lat":"6.0404","lng":"171.9846","name":"Enejit Airport"}, 
{ "code":"ENT", "city":"Eniwetok Atoll","lat":"11.3407001495361","lng":"162.328002929687","name":"Eniwetok Airport"}, 
{ "code":"VLS", "city":"Epi Island","lat":"-16.7961006165","lng":"168.177001953","name":"Valesdir Airport"}, 
{ "code":"EUA", "city":"Eua Island","lat":"-21.3782997131","lng":"-174.957992554","name":"Kaufana Airport"}, 
{ "code":"FAC", "city":"Faaite","lat":"-16.68657","lng":"-145.329394","name":"Faaite Airport"}, 
{ "code":"FHZ", "city":"Fakahina","lat":"-15.992259","lng":"-140.164246","name":"Fakahina Airport"}, 
{ "code":"ULI", "city":"Falalop Island","lat":"10.0198","lng":"139.789993","name":"Ulithi Airport"}, 
{ "code":"FGU", "city":"Fangatau","lat":"-15.820044","lng":"-140.888071","name":"Fangatau Airport"}, 
{ "code":"HUH", "city":"Fare","lat":"-16.687084","lng":"-151.021593","name":"Huahine-Fare Airport"}, 
{ "code":"FRE", "city":"Fera Island","lat":"-8.1075","lng":"159.576996","name":"Fera/Maringe Airport"}, 
{ "code":"FUN", "city":"Funafuti","lat":"-8.525","lng":"179.195999","name":"Funafuti International Airport"}, 
{ "code":"FTA", "city":"Futuna Island","lat":"-19.5163993835","lng":"170.231994629","name":"Futuna Airport"}, 
{ "code":"GTA", "city":"Gatokae","lat":"-8.738358","lng":"158.202836","name":"Gatokae Aerodrome"}, 
{ "code":"ZGU", "city":"Gaua Island","lat":"-14.2181","lng":"167.587006","name":"Gaua Island Airport"}, 
{ "code":"GZO", "city":"Gizo","lat":"-8.09778022766","lng":"156.863998413","name":"Nusatupe Airport"}, 
{ "code":"GUM", "city":"Hagåtña","lat":"13.485","lng":"144.797282","name":"Antonio B. Won Pat International Airport"}, 
{ "code":"HHZ", "city":"Hikueru","lat":"-17.548297","lng":"-142.612037","name":"Hikueru Airport"}, 
{ "code":"AUQ", "city":"Hiva Oa Island","lat":"-9.76879024506","lng":"-139.011001587","name":"Hiva Oa-Atuona Airport"}, 
{ "code":"HIR", "city":"Honiara","lat":"-9.428","lng":"160.054993","name":"Honiara International Airport"}, 
{ "code":"SPN", "city":"I Fadang, Saipan","lat":"15.119","lng":"145.729004","name":"Saipan International Airport"}, 
{ "code":"IPA", "city":"Ipota","lat":"-18.856389","lng":"169.283333","name":"Ipota Airport"}, 
{ "code":"UIT", "city":"Jabor Jaluit Atoll","lat":"5.909213","lng":"169.637256","name":"Jaluit Airport"}, 
{ "code":"KBT", "city":"Kaben","lat":"8.90056","lng":"170.843994","name":"Kaben Airport"}, 
{ "code":"KGE", "city":"Kagau Island","lat":"-7.3305","lng":"157.585","name":"Kaghau Airport"}, 
{ "code":"KXU", "city":"Katiu","lat":"-16.339681","lng":"-144.407966","name":"Katiu Airport"}, 
{ "code":"KHZ", "city":"Kauehi","lat":"-15.780622","lng":"-145.128443","name":"Kauehi Airport"}, 
{ "code":"KIO", "city":"Kili Island","lat":"5.64386","lng":"169.124586","name":"Kili Airport"}, 
{ "code":"IRA", "city":"Kirakira","lat":"-10.4497003555","lng":"161.897994995","name":"Ngorangora Airport"}, 
{ "code":"CXI", "city":"Kiritimati","lat":"1.986278","lng":"-157.350011","name":"Cassidy International Airport"}, 
{ "code":"KUE", "city":"Kolombangara Island","lat":"-8.0262","lng":"156.94783","name":"Kukudu Airport"}, 
{ "code":"KUC", "city":"Kuria","lat":"0.218611","lng":"173.442001","name":"Kuria Airport"}, 
{ "code":"KWS", "city":"Kwailabesi","lat":"-8.360508","lng":"160.775127","name":"Kwailabesi Airport"}, 
{ "code":"KWA", "city":"Kwajalein","lat":"8.72012042999268","lng":"167.731994628906","name":"Bucholz Army Air Field"}, 
{ "code":"LML", "city":"Lae Island","lat":"8.92111","lng":"166.264999","name":"Lae Island Airport"}, 
{ "code":"LPM", "city":"Lamap","lat":"-16.4611228","lng":"167.829253","name":"Lamap Airport"}, 
{ "code":"LNB", "city":"Lamen Bay","lat":"-16.5841999054","lng":"168.158996582","name":"Lamen Bay Airport"}, 
{ "code":"GEF", "city":"Liangia","lat":"-7.57582998275757","lng":"156.59700012207","name":"Geva Airport"}, 
{ "code":"HPA", "city":"Lifuka","lat":"-19.7770004272461","lng":"-174.341003417969","name":"Lifuka Island Airport"}, 
{ "code":"LIK", "city":"Likiep Island","lat":"9.82316","lng":"169.307999","name":"Likiep Airport"}, 
{ "code":"TOH", "city":"Loh/Linua","lat":"-13.328","lng":"166.638","name":"Torres Airstrip"}, 
{ "code":"LLM", "city":"Lomlom","lat":"-10.296828","lng":"166.327322","name":"Lomlom Airport"}, 
{ "code":"LOD", "city":"Longana","lat":"-15.3066997528","lng":"167.966995239","name":"Longana Airport"}, 
{ "code":"LNE", "city":"Lonorore","lat":"-15.8655996323","lng":"168.17199707","name":"Lonorore Airport"}, 
{ "code":"SON", "city":"Luganville","lat":"-15.5050001144","lng":"167.220001221","name":"Santo Pekoa International Airport"}, 
{ "code":"MWF", "city":"Maewo Island","lat":"-14.997222","lng":"168.081111","name":"Maewo-Naone Airport"}, 
{ "code":"MNK", "city":"Maiana","lat":"1.00361","lng":"173.031006","name":"Maiana Airport"}, 
{ "code":"MJE", "city":"Majkin","lat":"8.163362","lng":"168.173862","name":"Majkin Airport"}, 
{ "code":"MAJ", "city":"Majuro Atoll","lat":"7.06476","lng":"171.272003","name":"Marshall Islands International Airport"}, 
{ "code":"MKP", "city":"Makemo","lat":"-16.5839","lng":"-143.658005","name":"Makemo Airport"}, 
{ "code":"MTK", "city":"Makin Island","lat":"3.37444","lng":"172.992004","name":"Makin Island Airport"}, 
{ "code":"SWJ", "city":"Malekula Island","lat":"-16.4864","lng":"167.4472","name":"Southwest Bay Airport"}, 
{ "code":"MAV", "city":"Maloelap Island","lat":"8.70444","lng":"171.229996","name":"Maloelap Island Airport"}, 
{ "code":"MHM", "city":"Manaoba","lat":"-8.325008","lng":"160.80051","name":"Manaoba Airport"}, 
{ "code":"MGS", "city":"Mangaia Island","lat":"-21.895987","lng":"-157.906662","name":"Mangaia Island Airport"}, 
{ "code":"MHX", "city":"Manihiki Island","lat":"-10.3767004013062","lng":"-161.001998901367","name":"Manihiki Island Airport"}, 
{ "code":"MZK", "city":"Marakei","lat":"2.05861","lng":"173.270996","name":"Marakei Airport"}, 
{ "code":"RUS", "city":"Marau","lat":"-9.86166954041","lng":"160.824996948","name":"Marau Airport"}, 
{ "code":"MUK", "city":"Mauke Island","lat":"-20.136100769043","lng":"-157.345001220703","name":"Mauke Airport"}, 
{ "code":"MBU", "city":"Mbambanakira","lat":"-9.7475","lng":"159.839005","name":"Babanakira Airport"}, 
{ "code":"EAL", "city":"Mejato Island","lat":"9.31930555556","lng":"166.847777778","name":"Elenak Airport"}, 
{ "code":"MJB", "city":"Mejit Atoll","lat":"10.283302","lng":"170.869","name":"Mejit Atoll Airport"}, 
{ "code":"MIJ", "city":"Mili Island","lat":"6.084754","lng":"171.731419","name":"Mili Island Airport"}, 
{ "code":"MOI", "city":"Mitiaro Island","lat":"-19.842501","lng":"-157.703003","name":"Mitiaro Island Airport"}, 
{ "code":"MOZ", "city":"Moorea-Maiao","lat":"-17.48979","lng":"-149.761777","name":"Moorea Temae Airport"}, 
{ "code":"UOA", "city":"Moruroa Atoll","lat":"-21.80978","lng":"-138.813385","name":"Moruroa Airport"}, 
{ "code":"BOB", "city":"Motu Mute","lat":"-16.4444007873535","lng":"-151.751007080078","name":"Bora Bora Airport"}, 
{ "code":"MUA", "city":"Munda","lat":"-8.32797","lng":"157.263","name":"Munda Airport"}, 
{ "code":"NIU", "city":"Naiu Atoll","lat":"-16.119296","lng":"-146.368768","name":"Naiu Airport"}, 
{ "code":"NDK", "city":"Namorik Atoll","lat":"5.633005","lng":"168.125631","name":"Namorik Airport"}, 
{ "code":"NAU", "city":"Napuka Island","lat":"-14.177397","lng":"-141.266112","name":"Napuka Island Airport"}, 
{ "code":"NIG", "city":"Nikunau","lat":"-1.31444001198","lng":"176.410003662","name":"Nikunau Airport"}, 
{ "code":"NTT", "city":"Niuatoputapu","lat":"-15.977297","lng":"-173.791089","name":"Kuini Lavenia Airport"}, 
{ "code":"NON", "city":"Nonouti","lat":"-0.639722","lng":"174.427994","name":"Nonouti Airport"}, 
{ "code":"NUS", "city":"Norsup","lat":"-16.0797","lng":"167.401001","name":"Norsup Airport"}, 
{ "code":"NHV", "city":"Nuku Hiva","lat":"-8.7956","lng":"-140.229004","name":"Nuku Hiva Airport"}, 
{ "code":"TBU", "city":"Nuku'alofa","lat":"-21.2411994934082","lng":"-175.149993896484","name":"Fua'amotu International Airport"}, 
{ "code":"NUK", "city":"Nukutavake","lat":"-19.284613","lng":"-138.768367","name":"Nukutavake Airport"}, 
{ "code":"NKP", "city":"Nukutepipi","lat":"-20.700054","lng":"-143.045933","name":"Nukutepipi Airport"}, 
{ "code":"KSA", "city":"Okat","lat":"5.35698","lng":"162.957993","name":"Kosrae International Airport"}, 
{ "code":"OLJ", "city":"Olpoi","lat":"-14.8816995621","lng":"166.557998657","name":"North West Santo Airport"}, 
{ "code":"OOT", "city":"Onotoa","lat":"-1.79611","lng":"175.526001","name":"Onotoa Airport"}, 
{ "code":"HOI", "city":"Otepa","lat":"-18.0748","lng":"-140.945999","name":"Hao Airport"}, 
{ "code":"PBJ", "city":"Paama Island","lat":"-16.431955","lng":"168.235511","name":"Tavie Airport"}, 
{ "code":"PPT", "city":"Papeete","lat":"-17.553699","lng":"-149.606995","name":"Faa'a International Airport"}, 
{ "code":"PRS", "city":"Parasi","lat":"-9.64167022705078","lng":"161.425003051758","name":"Parasi Airport"}, 
{ "code":"PYE", "city":"Penrhyn Island","lat":"-9.01437","lng":"-158.03241","name":"Tongareva Airport"}, 
{ "code":"SSR", "city":"Pentecost Island","lat":"-15.4708003998","lng":"168.151992798","name":"Sara Airport"}, 
{ "code":"PNI", "city":"Pohnpei Island","lat":"6.98509979248047","lng":"158.208999633789","name":"Pohnpei International Airport"}, 
{ "code":"VLI", "city":"Port Vila","lat":"-17.699301","lng":"168.320007","name":"Bauerfield International Airport"}, 
{ "code":"PZK", "city":"Pukapuka Atoll","lat":"-10.9145","lng":"-165.8393","name":"Pukapuka Island Airport"}, 
{ "code":"PUK", "city":"Pukaruha","lat":"-18.295726","lng":"-137.016291","name":"Pukaruha Airport"}, 
{ "code":"KKR", "city":"Raitahiti","lat":"-15.6633","lng":"-146.884995","name":"Kaukura Airport"}, 
{ "code":"RBV", "city":"Ramata","lat":"-8.16806030273437","lng":"157.643005371094","name":"Ramata Airport"}, 
{ "code":"RRR", "city":"Raroia","lat":"-16.050485","lng":"-142.476568","name":"Raroia Airport"}, 
{ "code":"REA", "city":"Reao","lat":"-18.46652","lng":"-136.43855","name":"Reao Airport"}, 
{ "code":"RCL", "city":"Redcliffe","lat":"-15.472","lng":"167.835007","name":"Redcliffe Airport"}, 
{ "code":"RNL", "city":"Rennell Island","lat":"-11.55","lng":"160.062778","name":"Rennell/Tingoa Airport"}, 
{ "code":"RMT", "city":"Rimatara Island","lat":"-22.63725","lng":"-152.8059","name":"Rimatara Airport"}, 
{ "code":"RIN", "city":"Ringi Cove","lat":"-8.12639045715332","lng":"157.143005371094","name":"Ringi Cove Airport"}, 
{ "code":"RNP", "city":"Rongelap Island","lat":"11.1572","lng":"166.886993","name":"Rongelap Island Airport"}, 
{ "code":"ROP", "city":"Rota Island","lat":"14.1743","lng":"145.242996","name":"Rota International Airport"}, 
{ "code":"MDY", "city":"Sand Island","lat":"28.2017","lng":"-177.380997","name":"Henderson Field"}, 
{ "code":"NNB", "city":"Santa Ana Island","lat":"-10.847994","lng":"162.454108","name":"Santa Ana Airport"}, 
{ "code":"SCZ", "city":"Santa Cruz/Graciosa Bay/Luova","lat":"-10.7203","lng":"165.794998","name":"Santa Cruz/Graciosa Bay/Luova Airport"}, 
{ "code":"EGM", "city":"Sege","lat":"-8.57889","lng":"157.876007","name":"Sege Airport"}, 
{ "code":"SLH", "city":"Sola","lat":"-13.8516998291","lng":"167.537002563","name":"Sola Airport"}, 
{ "code":"NAZ", "city":"Star Harbor","lat":"-10.6758","lng":"162.2049","name":"Nana Airport"}, 
{ "code":"MNY", "city":"Stirling Island","lat":"-7.41694021224976","lng":"155.565002441406","name":"Mono Airport"}, 
{ "code":"VAO", "city":"Suavanao","lat":"-7.58556","lng":"158.731003","name":"Suavanao Airport"}, 
{ "code":"TBV", "city":"Tabal Island","lat":"8.3027","lng":"171.1615","name":"Tabal Airstrip"}, 
{ "code":"TSU", "city":"Tabiteuea South","lat":"-1.47444","lng":"175.063995","name":"Tabiteuea South Airport"}, 
{ "code":"TNV", "city":"Tabuaeran Island","lat":"3.89944","lng":"-159.389008","name":"Tabuaeran Island Airport"}, 
{ "code":"TJN", "city":"Takume","lat":"-15.857434","lng":"-142.266469","name":"Takume Airport"}, 
{ "code":"TMN", "city":"Tamana Island","lat":"-2.48583","lng":"175.970001","name":"Tamana Island Airport"}, 
{ "code":"TAH", "city":"Tanna Island","lat":"-19.455099","lng":"169.223999","name":"Whitegrass Airport"}, 
{ "code":"TRW", "city":"Tarawa","lat":"1.38164","lng":"173.147003","name":"Bonriki International Airport"}, 
{ "code":"TKV", "city":"Tatakoto","lat":"-17.355226","lng":"-138.44734","name":"Tatakoto Airport"}, 
{ "code":"TNQ", "city":"Teraina","lat":"4.698359","lng":"-160.394376","name":"Washington Island Airstrip"}, 
{ "code":"TTI", "city":"Tetiaroa","lat":"-17.015095","lng":"-149.589372","name":"Tetiaroa Airport"}, 
{ "code":"TIQ", "city":"Tinian Island","lat":"14.998101","lng":"145.61923","name":"Tinian International Airport"}, 
{ "code":"TGH", "city":"Tongoa Island","lat":"-16.8910999298","lng":"168.550994873","name":"Tongoa Airport"}, 
{ "code":"TIH", "city":"Tuherahera","lat":"-15.1196","lng":"-148.231003","name":"Tikehau Airport"}, 
{ "code":"TPX", "city":"Tupai Atoll","lat":"-16.2423","lng":"-151.8338","name":"Tupai Airport"}, 
{ "code":"ZTA", "city":"Tureia","lat":"-20.784262","lng":"-138.56796","name":"Tureia Airport"}, 
{ "code":"UAH", "city":"Ua Huka","lat":"-8.936228","lng":"-139.554062","name":"Ua Huka Airport"}, 
{ "code":"UAP", "city":"Ua Pou","lat":"-9.35167","lng":"-140.078003","name":"Ua Pou Airport"}, 
{ "code":"UJE", "city":"Ujae Atoll","lat":"8.92806","lng":"165.761993","name":"Ujae Atoll Airport"}, 
{ "code":"UTK", "city":"Utirik Island","lat":"11.222219","lng":"169.851429","name":"Utirik Airport"}, 
{ "code":"RFP", "city":"Uturoa","lat":"-16.7229","lng":"-151.466003","name":"Raiatea Airport"}, 
{ "code":"VHZ", "city":"Vahitahi","lat":"-18.780697","lng":"-138.85568","name":"Vahitahi Airport"}, 
{ "code":"VAV", "city":"Vava'u Island","lat":"-18.5853004455566","lng":"-173.962005615234","name":"Vava'u International Airport"}, 
{ "code":"VIU", "city":"Viru","lat":"-8.508457","lng":"157.689986","name":"Viru Harbour Airstrip"}, 
{ "code":"AWK", "city":"Wake Island","lat":"19.282437","lng":"166.636637","name":"Wake Island Airfield"}, 
{ "code":"WLH", "city":"Walaha","lat":"-15.412","lng":"167.690994","name":"Walaha Airport"}, 
{ "code":"TKK", "city":"Weno Island","lat":"7.46187019348145","lng":"151.843002319336","name":"Chuuk International Airport"}, 
{ "code":"CCK", "city":"West Island","lat":"-12.19134","lng":"96.833696","name":"Cocos (Keeling) Islands Airport"}, 
{ "code":"WJA", "city":"Woja","lat":"7.450833","lng":"168.55","name":"Woja Airport"}, 
{ "code":"WTO", "city":"Wotho Island","lat":"10.1733","lng":"166.003006","name":"Wotho Island Airport"}, 
{ "code":"WTE", "city":"Wotje","lat":"9.458333","lng":"170.238611","name":"Wotje Airport"}, 
{ "code":"XYA", "city":"Yandina","lat":"-9.092816","lng":"159.21841","name":"Yandina Airport"}, 
{ "code":"YAP", "city":"Yap Island","lat":"9.49891","lng":"138.082993","name":"Yap International Airport"}, 
{ "code":"INU", "city":"Yaren District","lat":"-0.547458","lng":"166.919006","name":"Nauru International Airport"}, 
{ "code":"UAM", "city":"Yigo","lat":"13.584","lng":"144.929998","name":"Andersen Air Force Base"}
]