[
{ "code":"ACD", "city":"Acandí","lat":"8.497847","lng":"-77.274106","name":"Alcides Fernández Airport"}, 
{ "code":"CPB", "city":"Acandí","lat":"8.632169","lng":"-77.350262","name":"Capurganá Airport"}, 
{ "code":"ARF", "city":"Acaricuara","lat":"0.533333","lng":"-70.133333","name":"Acaricuara Airport"}, 
{ "code":"AGV", "city":"Acarigua","lat":"9.553375","lng":"-69.237869","name":"Oswaldo Guevara Mujica Airport"}, 
{ "code":"GGB", "city":"Água Boa","lat":"-14.019959","lng":"-52.152003","name":"Frederico Carlos Müller Airport"}, 
{ "code":"HAY", "city":"Aguachica","lat":"8.247","lng":"-73.5814","name":"Hacaritama Airport"}, 
{ "code":"TNW", "city":"Ahuano","lat":"-1.060185","lng":"-77.580525","name":"Jumandy Airport"}, 
{ "code":"AHL", "city":"Aishalton","lat":"2.47403","lng":"-59.320786","name":"Aishalton Airport"}, 
{ "code":"ABN", "city":"Albina","lat":"5.51272","lng":"-54.050098","name":"Albina Airport"}, 
{ "code":"ALQ", "city":"Alegrete","lat":"-29.811595","lng":"-55.894707","name":"Alegrete Novo Airport"}, 
{ "code":"ALT", "city":"Alenquer","lat":"-1.917","lng":"-54.7231","name":"Alenquer Municipal Airport"}, 
{ "code":"MEU", "city":"Almeirim","lat":"-0.889839","lng":"-52.6022","name":"Monte Dourado - Serra do Areão Airport"}, 
{ "code":"GGF", "city":"Almeirim","lat":"-1.479524","lng":"-52.578214","name":"Almeirim Airport"}, 
{ "code":"AMJ", "city":"Almenara","lat":"-16.165579","lng":"-40.684024","name":"Cirilo Queiróz Airport"}, 
{ "code":"AFL", "city":"Alta Floresta","lat":"-9.866389","lng":"-56.106298","name":"Piloto Osvaldo Marques Dias Airport"}, 
{ "code":"ATM", "city":"Altamira","lat":"-3.253144","lng":"-52.253938","name":"Altamira Interstate Airport"}, 
{ "code":"APY", "city":"Alto Parnaíba","lat":"-9.08533","lng":"-45.955603","name":"Alto Parnaíba Airport"}, 
{ "code":"ARR", "city":"Alto Rio Senguerr","lat":"-45.013599","lng":"-70.812202","name":"D. Casimiro Szlapelis Airport"}, 
{ "code":"AFI", "city":"Amalfi","lat":"6.895033","lng":"-75.047334","name":"Amalfi Airport"}, 
{ "code":"ATF", "city":"Ambato","lat":"-1.21207","lng":"-78.5746","name":"Chachoán Regional Airport"}, 
{ "code":"AAO", "city":"Anaco","lat":"9.430225","lng":"-64.470726","name":"Anaco Airport"}, 
{ "code":"APS", "city":"Anápolis","lat":"-16.363575","lng":"-48.9288","name":"Anápolis Airport"}, 
{ "code":"ZUD", "city":"Ancud","lat":"-41.904251","lng":"-73.796571","name":"Pupelde Airport"}, 
{ "code":"ANS", "city":"Andahuaylas","lat":"-13.7063999176025","lng":"-73.3504028320312","name":"Andahuaylas Airport"}, 
{ "code":"AOP", "city":"Andoas","lat":"-2.79612994194","lng":"-76.4665985107","name":"Alferez FAP Alfredo Vladimir Sara Bauer Airport"}, 
{ "code":"GDR", "city":"Angra dos Reis","lat":"-22.9753","lng":"-44.307098","name":"Angra dos Reis Airport"}, 
{ "code":"NAI", "city":"Annai","lat":"3.95944","lng":"-59.124199","name":"Annai Airport"}, 
{ "code":"ATA", "city":"Anta","lat":"-9.34743976593018","lng":"-77.5983963012695","name":"Comandante FAP German Arias Graziani Airport"}, 
{ "code":"ANF", "city":"Antofagasta","lat":"-23.444501","lng":"-70.445099","name":"Andrés Sabella Gálvez International Airport"}, 
{ "code":"API", "city":"Apiay","lat":"4.07607","lng":"-73.5627","name":"Gomez Nino Apiay Air Base"}, 
{ "code":"APB", "city":"Apolo","lat":"-14.7356","lng":"-68.411903","name":"Apolo Airport"}, 
{ "code":"APU", "city":"Apucarana","lat":"-23.609099","lng":"-51.384301","name":"Captain João Busse Airport"}, 
{ "code":"IUP", "city":"Apuí","lat":"-7.172773","lng":"-59.8396","name":"Apuí Airport"}, 
{ "code":"AJU", "city":"Aracaju","lat":"-10.984","lng":"-37.070301","name":"Aracaju - Santa Maria International Airport"}, 
{ "code":"ARX", "city":"Aracati","lat":"-4.568896","lng":"-37.805135","name":"Aracati Dragão do Mar Regional Airport"}, 
{ "code":"ARU", "city":"Araçatuba","lat":"-21.141479","lng":"-50.424575","name":"Araçatuba Airport"}, 
{ "code":"AIY", "city":"Araçuaí","lat":"-16.851571","lng":"-42.045633","name":"Araçuaí Airport"}, 
{ "code":"ARS", "city":"Aragarças","lat":"-15.8994","lng":"-52.2411","name":"Aragarças Airport"}, 
{ "code":"AUX", "city":"Araguaína","lat":"-7.22787","lng":"-48.240501","name":"Araguaína Airport"}, 
{ "code":"APQ", "city":"Arapiraca","lat":"-9.776589","lng":"-36.628983","name":"Arapiraca Airport"}, 
{ "code":"APX", "city":"Arapongas","lat":"-23.352636","lng":"-51.491967","name":"Arapongas Airport"}, 
{ "code":"ACR", "city":"Araracuara","lat":"-0.600854","lng":"-72.398011","name":"Araracuara Airport"}, 
{ "code":"AQA", "city":"Araraquara","lat":"-21.812","lng":"-48.132999","name":"Araraquara Airport"}, 
{ "code":"JAW", "city":"Araripina","lat":"-7.586417","lng":"-40.535431","name":"Araripina Airport"}, 
{ "code":"AUC", "city":"Arauca","lat":"7.06888","lng":"-70.7369","name":"Santiago Perez Airport"}, 
{ "code":"ARQ", "city":"Arauquita","lat":"7.02106","lng":"-71.388901","name":"El Troncal Airport"}, 
{ "code":"AAX", "city":"Araxá","lat":"-19.5632","lng":"-46.9604","name":"Romeu Zema Airport"}, 
{ "code":"ARO", "city":"Arboletes","lat":"8.855118","lng":"-76.422676","name":"Arboletes Airport"}, 
{ "code":"AQP", "city":"Arequipa","lat":"-16.3411006927","lng":"-71.5830993652","name":"Rodríguez Ballón International Airport"}, 
{ "code":"ARI", "city":"Arica","lat":"-18.348499","lng":"-70.338699","name":"Chacalluta Airport"}, 
{ "code":"ACM", "city":"Arica","lat":"-2.143713","lng":"-71.75935","name":"Arica Airport"}, 
{ "code":"AIR", "city":"Aripuanã","lat":"-10.187375","lng":"-59.457469","name":"Aripuanã Airport"}, 
{ "code":"AQM", "city":"Ariquemes","lat":"-9.880436","lng":"-63.047115","name":"Ariquemes Airport"}, 
{ "code":"AXM", "city":"Armenia","lat":"4.45278","lng":"-75.7664","name":"El Eden Airport"}, 
{ "code":"NAR", "city":"Armenia","lat":"6.21002","lng":"-74.5906","name":"Puerto Nare Airport"}, 
{ "code":"AAI", "city":"Arraias","lat":"-13.025154","lng":"-46.884107","name":"Arraias Airport"}, 
{ "code":"ATI", "city":"Artigas","lat":"-30.4007","lng":"-56.5079","name":"Artigas International Airport"}, 
{ "code":"ASC", "city":"Ascensión de Guarayos","lat":"-15.933365","lng":"-63.155575","name":"Ascención de Guarayos Airport"}, 
{ "code":"AIF", "city":"Assis","lat":"-22.638601","lng":"-50.455983","name":"Marcelo Pires Halzhausen Airport"}, 
{ "code":"ASU", "city":"Asunción","lat":"-25.240156","lng":"-57.519227","name":"Aeropuerto Internacional Silvio Pettirossi"}, 
{ "code":"AYX", "city":"Atalaya","lat":"-10.7291","lng":"-73.766502","name":"Teniente General Gerardo Pérez Pinedo Airport"}, 
{ "code":"LDO", "city":"Aurora","lat":"4.376108","lng":"-55.407057","name":"Ladouanie Airport"}, 
{ "code":"AAJ", "city":"Awaradam","lat":"3.898681","lng":"-55.577907","name":"Cayana Airstrip"}, 
{ "code":"AYC", "city":"Ayacucho","lat":"8.602149","lng":"-73.612866","name":"Ayacucho Airport"}, 
{ "code":"AYP", "city":"Ayacucho","lat":"-13.1548","lng":"-74.204399","name":"Air Force Colonel Alfredo Mendivil Duarte Airport"}, 
{ "code":"AYA", "city":"Ayapel","lat":"8.3","lng":"-75.15","name":"Ayapel Airport"}, 
{ "code":"AYO", "city":"Ayolas","lat":"-27.378379","lng":"-56.856791","name":"Aeropuerto Nacional Juan de Ayolas"}, 
{ "code":"BGX", "city":"Bagé","lat":"-31.390499","lng":"-54.112202","name":"Comandante Gustavo Kraemer Airport"}, 
{ "code":"BHI", "city":"Bahía Blanca","lat":"-38.725","lng":"-62.1693","name":"Comandante Espora Airport"}, 
{ "code":"BHA", "city":"Bahía de Caraquez","lat":"-0.608111","lng":"-80.402702","name":"Los Perales Airport"}, 
{ "code":"DPB", "city":"Bahia Inutil","lat":"-54.049977","lng":"-68.809193","name":"Pampa Guanaco Airport"}, 
{ "code":"BFA", "city":"Bahía Negra","lat":"-20.230777","lng":"-58.170455","name":"Bahía Negra Airport"}, 
{ "code":"BSC", "city":"Bahía Solano","lat":"6.20292","lng":"-77.3947","name":"José Celestino Mutis Airport"}, 
{ "code":"BHF", "city":"Bahía Solano","lat":"6.694817","lng":"-77.493643","name":"Cupica Airport"}, 
{ "code":"PZR", "city":"Bajo Baudó","lat":"4.961621","lng":"-77.363913","name":"Pizarro Airport"}, 
{ "code":"BBA", "city":"Balmaceda","lat":"-45.915968","lng":"-71.689499","name":"Balmaceda Airport"}, 
{ "code":"BSS", "city":"Balsas","lat":"-7.525305","lng":"-46.053364","name":"Balsas Airport"}, 
{ "code":"BMJ", "city":"Baramita","lat":"7.37012004852295","lng":"-60.4879989624023","name":"Baramita Airport"}, 
{ "code":"BLA", "city":"Barcelona","lat":"10.111111","lng":"-64.692222","name":"General José Antonio Anzoategui International Airport"}, 
{ "code":"BAZ", "city":"Barcelos","lat":"-0.981191","lng":"-62.918603","name":"Barcelos Airport"}, 
{ "code":"BNS", "city":"Barinas","lat":"8.615","lng":"-70.214167","name":"Barinas Airport"}, 
{ "code":"BRM", "city":"Barquisimeto","lat":"10.042747","lng":"-69.35862","name":"Barquisimeto International Airport"}, 
{ "code":"BQQ", "city":"Barra","lat":"-11.0808","lng":"-43.147499","name":"Barra Airport"}, 
{ "code":"BDC", "city":"Barra do Corda","lat":"-5.5025","lng":"-45.215833","name":"Barra do Corda Airport"}, 
{ "code":"BPG", "city":"Barra do Garças","lat":"-15.861417","lng":"-52.389008","name":"Barra do Garças Airport"}, 
{ "code":"BAC", "city":"Barranca De Upia","lat":"4.583333","lng":"-72.966667","name":"Barranca De Upia Airport"}, 
{ "code":"EJA", "city":"Barrancabermeja","lat":"7.02433","lng":"-73.8068","name":"Yariguíes Airport"}, 
{ "code":"NBB", "city":"Barranco Minas","lat":"3.490691","lng":"-69.808151","name":"Barranco Minas Airport"}, 
{ "code":"BAQ", "city":"Barranquilla","lat":"10.8896","lng":"-74.7808","name":"Ernesto Cortissoz International Airport"}, 
{ "code":"BRA", "city":"Barreiras","lat":"-12.0789","lng":"-45.008999","name":"Dom Ricardo Weberberger Airport"}, 
{ "code":"BRB", "city":"Barreirinhas","lat":"-2.756644","lng":"-42.803187","name":"Barreirinhas National Airport"}, 
{ "code":"BAT", "city":"Barretos","lat":"-20.584631","lng":"-48.594125","name":"Chafei Amsei Airport"}, 
{ "code":"GFO", "city":"Bartica","lat":"6.358864","lng":"-58.655207","name":"Bartica A Airport"}, 
{ "code":"BVL", "city":"Baures","lat":"-13.654426","lng":"-63.704718","name":"Baures Airport"}, 
{ "code":"JTC", "city":"Bauru","lat":"-22.160755","lng":"-49.070325","name":"Bauru/Arealva–Moussa Nakhal Tobias State Airport"}, 
{ "code":"BEL", "city":"Belém","lat":"-1.379279","lng":"-48.476207","name":"Val de Cans/Júlio Cezar Ribeiro International Airport"}, 
{ "code":"BUV", "city":"Bella Union","lat":"-30.319807","lng":"-57.558823","name":"Placeres Airport"}, 
{ "code":"BLP", "city":"Bellavista","lat":"-7.06056","lng":"-76.582199","name":"Huallaga Airport"}, 
{ "code":"BVM", "city":"Belmonte","lat":"-15.8717","lng":"-38.871899","name":"Belmonte Airport"}, 
{ "code":"CNF", "city":"Belo Horizonte","lat":"-19.63571","lng":"-43.966928","name":"Tancredo Neves International Airport"}, 
{ "code":"PLU", "city":"Belo Horizonte","lat":"-19.85074","lng":"-43.950316","name":"Pampulha - Carlos Drummond de Andrade Airport"}, 
{ "code":"BGV", "city":"Bento Gonçalves","lat":"-29.147424","lng":"-51.540791","name":"Aeroclube de Bento Gonçalves Airport"}, 
{ "code":"BJO", "city":"Bermejo","lat":"-22.7733001709","lng":"-64.3128967285","name":"Bermejo Airport"}, 
{ "code":"BNU", "city":"Blumenau","lat":"-26.831661","lng":"-49.093569","name":"Blumenau Airport"}, 
{ "code":"BVB", "city":"Boa Vista","lat":"2.845855","lng":"-60.690944","name":"Atlas Brasil Cantanhede Airport"}, 
{ "code":"BCR", "city":"Boca do Acre","lat":"-8.83456","lng":"-67.312401","name":"Novo Campo Airport"}, 
{ "code":"BOG", "city":"Bogota","lat":"4.70159","lng":"-74.1469","name":"El Dorado International Airport"}, 
{ "code":"EOR", "city":"Bolivar","lat":"6.71573","lng":"-61.638786","name":"El Dorado Airport"}, 
{ "code":"LAZ", "city":"Bom Jesus da Lapa","lat":"-13.2621","lng":"-43.4081","name":"Bom Jesus da Lapa Airport"}, 
{ "code":"BYO", "city":"Bonito","lat":"-21.2473","lng":"-56.452399","name":"Bonito Airport"}, 
{ "code":"RBB", "city":"Borba","lat":"-4.40634","lng":"-59.602402","name":"Borba Airport"}, 
{ "code":"BTO", "city":"Botopasi","lat":"4.217511","lng":"-55.447054","name":"Botopasi Airport"}, 
{ "code":"QRF", "city":"Bragado","lat":"-35.145811","lng":"-60.480294","name":"Bragado Airport"}, 
{ "code":"BJP", "city":"Bragança Paulista","lat":"-22.978822","lng":"-46.537131","name":"Estadual Arthur Siqueira Airport"}, 
{ "code":"BSB", "city":"Brasília","lat":"-15.869167","lng":"-47.920834","name":"Presidente Juscelino Kubitschek International Airport"}, 
{ "code":"BVS", "city":"Breves","lat":"-1.63653","lng":"-50.4436","name":"Breves Airport"}, 
{ "code":"BMS", "city":"Brumado","lat":"-14.2554","lng":"-41.817501","name":"Sócrates Mariani Bittencourt Airport"}, 
{ "code":"BGA", "city":"Bucaramanga","lat":"7.1265","lng":"-73.1848","name":"Palonegro Airport"}, 
{ "code":"BUN", "city":"Buenaventura","lat":"3.81963","lng":"-76.9898","name":"Gerardo Tobar López Airport"}, 
{ "code":"AEP", "city":"Buenos Aires","lat":"-34.5592","lng":"-58.4156","name":"Jorge Newbery Airpark"}, 
{ "code":"EZE", "city":"Buenos Aires (Ezeiza)","lat":"-34.8222","lng":"-58.5358","name":"Minister Pistarini International Airport"}, 
{ "code":"CBS", "city":"Cabimas","lat":"10.3307","lng":"-71.322502","name":"Oro Negro Airport"}, 
{ "code":"BZC", "city":"Cabo Frio","lat":"-22.770881","lng":"-41.96308","name":"Umberto Modiano Airport"}, 
{ "code":"CFB", "city":"Cabo Frio","lat":"-22.921485","lng":"-42.071874","name":"Cabo Frio Airport"}, 
{ "code":"CFC", "city":"Caçador","lat":"-26.787423","lng":"-50.939942","name":"Doctor Carlos Alberto da Costa Neves Airport"}, 
{ "code":"CCX", "city":"Cáceres","lat":"-16.0436","lng":"-57.629902","name":"Cáceres Airport"}, 
{ "code":"QDB", "city":"Cachoeira Do Sul","lat":"-30.0018997192383","lng":"-52.9407997131348","name":"Cachoeira do Sul Airport"}, 
{ "code":"CDI", "city":"Cachoeiro do Itapemirim","lat":"-20.834299","lng":"-41.1856","name":"Cachoeiro do Itapemirim - Raimundo de Andrade Airport"}, 
{ "code":"OAL", "city":"Cacoal","lat":"-11.496","lng":"-61.4508","name":"Cacoal Airport"}, 
{ "code":"MXQ", "city":"Cairu","lat":"-13.389444","lng":"-38.91","name":"Lorenzo Airport"}, 
{ "code":"PBA", "city":"Cairu","lat":"-13.5648","lng":"-38.939999","name":"Fábio Perini Airport"}, 
{ "code":"CJA", "city":"Cajamarca","lat":"-7.13918","lng":"-78.489403","name":"Mayor General FAP Armando Revoredo Iglesias Airport"}, 
{ "code":"CJZ", "city":"Cajazeiras","lat":"-6.8827","lng":"-38.61583","name":"Pedro Vieira Moreira Airport"}, 
{ "code":"CJC", "city":"Calama","lat":"-22.498199","lng":"-68.903603","name":"El Loa Airport"}, 
{ "code":"CLV", "city":"Caldas Novas","lat":"-17.725096","lng":"-48.606324","name":"Nelson Ribeiro Guimarães Airport"}, 
{ "code":"CVI", "city":"Caleta Olivia","lat":"-46.37428","lng":"-67.59409","name":"Caleta Olivia Airport"}, 
{ "code":"CLO", "city":"Cali","lat":"3.54322","lng":"-76.3816","name":"Alfonso Bonilla Aragon International Airport"}, 
{ "code":"CMT", "city":"Cametá","lat":"-2.2468","lng":"-49.56","name":"New Cametá Airport"}, 
{ "code":"CAM", "city":"Camiri","lat":"-20.00656","lng":"-63.527827","name":"Camiri Airport"}, 
{ "code":"CMC", "city":"Camocim","lat":"-2.895596","lng":"-40.859299","name":"Camocim - Pinto Martins Airport"}, 
{ "code":"HRR", "city":"Campiña","lat":"3.216667","lng":"-75.85","name":"Herrera Airport"}, 
{ "code":"CPV", "city":"Campina Grande","lat":"-7.269662","lng":"-35.896057","name":"Presidente João Suassuna Airport"}, 
{ "code":"VCP", "city":"Campinas","lat":"-23.007404","lng":"-47.134502","name":"Viracopos International Airport"}, 
{ "code":"CGR", "city":"Campo Grande","lat":"-20.469998","lng":"-54.673988","name":"Campo Grande Airport"}, 
{ "code":"CBW", "city":"Campo Mourão","lat":"-24.009199","lng":"-52.3568","name":"Campo Mourão Airport"}, 
{ "code":"CAW", "city":"Campos dos Goytacazes","lat":"-21.698299","lng":"-41.301701","name":"Bartolomeu Lisandro Airport"}, 
{ "code":"CAJ", "city":"Canaima","lat":"6.231989","lng":"-62.85485","name":"Canaima Airport"}, 
{ "code":"CQA", "city":"Canarana","lat":"-13.574444","lng":"-52.270557","name":"Canarana Airport"}, 
{ "code":"CNV", "city":"Canavieiras","lat":"-15.666999816895","lng":"-38.954700469971","name":"Sócrates Rezende Airport"}, 
{ "code":"CJD", "city":"Candilejas","lat":"2.066667","lng":"-74.583333","name":"Candilejas Airport"}, 
{ "code":"CEL", "city":"Canela","lat":"-29.370091","lng":"-50.831729","name":"Canela Airport"}, 
{ "code":"PDZ", "city":"Capure","lat":"9.978672","lng":"-62.231318","name":"Pedernales Airport"}, 
{ "code":"CQT", "city":"Caquetania","lat":"2.033333","lng":"-74.216667","name":"Caquetania Airport"}, 
{ "code":"CAF", "city":"Carauari","lat":"-4.871473","lng":"-66.897552","name":"Carauari Airport"}, 
{ "code":"CRQ", "city":"Caravelas","lat":"-17.6523","lng":"-39.253101","name":"Caravelas Airport"}, 
{ "code":"APO", "city":"Carepa","lat":"7.81196","lng":"-76.7164","name":"Antonio Roldán Betancur Airport"}, 
{ "code":"CPG", "city":"Carmen de Patagones","lat":"-40.7781","lng":"-62.9803","name":"Carmen de Patagones Airport"}, 
{ "code":"CLN", "city":"Carolina","lat":"-7.32044","lng":"-47.458698","name":"Brig. Lysias Augusto Rodrigues Airport"}, 
{ "code":"CTG", "city":"Cartagena","lat":"10.4424","lng":"-75.513","name":"Rafael Nuñez International Airport"}, 
{ "code":"CRC", "city":"Cartago","lat":"4.75818","lng":"-75.9557","name":"Santa Ana Airport"}, 
{ "code":"CAU", "city":"Caruaru","lat":"-8.28239","lng":"-36.0135","name":"Caruaru Airport"}, 
{ "code":"CUP", "city":"Carúpano","lat":"10.660014","lng":"-63.261681","name":"General Francisco Bermúdez Airport"}, 
{ "code":"CUO", "city":"Carurú","lat":"1.013822","lng":"-71.297343","name":"Carurú Airport"}, 
{ "code":"CTP", "city":"Carutapera","lat":"-1.225365","lng":"-46.019057","name":"Carutapera Airport"}, 
{ "code":"CAC", "city":"Cascavel","lat":"-25.000323","lng":"-53.501208","name":"Coronel Adalberto Mendes da Silva Airport"}, 
{ "code":"CUV", "city":"Casigua El Cubo","lat":"8.75814","lng":"-72.536301","name":"Casigua El Cubo Airport"}, 
{ "code":"CSS", "city":"Cassilândia","lat":"-19.146861","lng":"-51.676941","name":"Cassilândia Airport"}, 
{ "code":"WCA", "city":"Castro","lat":"-42.490299","lng":"-73.772797","name":"Gamboa Airport"}, 
{ "code":"CSR", "city":"Casuarito","lat":"5.833333","lng":"-68.133333","name":"Casuarito Airport"}, 
{ "code":"TLZ", "city":"Catalão","lat":"-18.216801","lng":"-47.8997","name":"Catalão Airport"}, 
{ "code":"CTC", "city":"Catamarca","lat":"-28.593117","lng":"-65.7512","name":"Coronel Felipe Varela International Airport"}, 
{ "code":"CAQ", "city":"Caucasia","lat":"7.96847","lng":"-75.1985","name":"Juan H White Airport"}, 
{ "code":"CXJ", "city":"Caxias Do Sul","lat":"-29.197183","lng":"-51.187647","name":"Hugo Cantergiani Regional Airport"}, 
{ "code":"CRR", "city":"Ceres","lat":"-29.872292","lng":"-61.927925","name":"Ceres Airport"}, 
{ "code":"SMB", "city":"Cerro Sombrero","lat":"-52.736698","lng":"-69.333603","name":"Franco Bianco Airport"}, 
{ "code":"PSO", "city":"Chachagüí","lat":"1.39625","lng":"-77.2915","name":"Antonio Nariño Airport"}, 
{ "code":"CHH", "city":"Chachapoyas","lat":"-6.201911","lng":"-77.856195","name":"Chachapoyas Airport"}, 
{ "code":"WCH", "city":"Chaitén","lat":"-42.781943","lng":"-72.834999","name":"Nuevo Chaitén Airport"}, 
{ "code":"CNR", "city":"Chañaral","lat":"-26.3325","lng":"-70.6073","name":"Chañaral Airport"}, 
{ "code":"CPL", "city":"Chaparral","lat":"3.724293","lng":"-75.465785","name":"General Navas Pardo Airport"}, 
{ "code":"XAP", "city":"Chapecó","lat":"-27.134199","lng":"-52.656601","name":"Serafin Enoss Bertaso Airport"}, 
{ "code":"CPC", "city":"Chapelco/San Martin de los Andes","lat":"-40.075401","lng":"-71.137299","name":"Aviador C. Campos Airport"}, 
{ "code":"CNT", "city":"Charata","lat":"-27.2164","lng":"-61.2103","name":"Charata Airport"}, 
{ "code":"CIX", "city":"Chiclayo","lat":"-6.78748","lng":"-79.828102","name":"Air Force Captain Jose A Quinones Gonzales International Airport"}, 
{ "code":"IGO", "city":"Chigorodó","lat":"7.677606","lng":"-76.683165","name":"Jaime Ortiz Betancourt Airport"}, 
{ "code":"CCH", "city":"Chile Chico","lat":"-46.5831","lng":"-71.686323","name":"Chile Chico Airport"}, 
{ "code":"YAI", "city":"Chillan","lat":"-36.5825","lng":"-72.031403","name":"Gral. Bernardo O´Higgins Airport"}, 
{ "code":"CHM", "city":"Chimbote","lat":"-9.14961","lng":"-78.523804","name":"FAP Lieutenant Jaime Andres de Montreuil Morales Airport"}, 
{ "code":"CCA", "city":"Chimore","lat":"-16.976834","lng":"-65.145568","name":"Chimore Airport"}, 
{ "code":"IVO", "city":"Chivolo","lat":"10.016667","lng":"-74.683333","name":"Chivolo Airport"}, 
{ "code":"HOS", "city":"Chos Malal","lat":"-37.444698","lng":"-70.222504","name":"Chos Malal Airport"}, 
{ "code":"JSM", "city":"Chubut","lat":"-44.0485992432","lng":"-70.4589004517","name":"Jose De San Martin Airport"}, 
{ "code":"GGH", "city":"Cianorte","lat":"-23.69157","lng":"-52.642091","name":"Engenheiro Gastão de Mesquita Filho Airport"}, 
{ "code":"CIM", "city":"Cimitarra","lat":"6.367484","lng":"-73.970658","name":"Cimitarra Airport"}, 
{ "code":"CBL", "city":"Ciudad Bolivar","lat":"8.122161","lng":"-63.536957","name":"General Tomas de Heres Airport"}, 
{ "code":"MVD", "city":"Ciudad de la Costa","lat":"-34.835647","lng":"-56.026497","name":"Carrasco General Cesáreo L. Berisso International Airport"}, 
{ "code":"AGT", "city":"Ciudad del Este","lat":"-25.457186","lng":"-54.839544","name":"Aeropuerto Internacional Guaraní"}, 
{ "code":"SFX", "city":"Ciudad Guayana","lat":"8.2788","lng":"-62.6652","name":"Macagua Airport"}, 
{ "code":"CLX", "city":"Clorinda","lat":"-25.3036","lng":"-57.7344","name":"Aeródromo de Clorinda"}, 
{ "code":"CIZ", "city":"Coari","lat":"-4.13406","lng":"-63.132599","name":"Coari Airport"}, 
{ "code":"CIJ", "city":"Cobija","lat":"-11.0403995514","lng":"-68.7829971313","name":"Capitán Aníbal Arab Airport"}, 
{ "code":"OCC", "city":"Coca","lat":"-0.462886","lng":"-76.986801","name":"Francisco De Orellana Airport"}, 
{ "code":"CBB", "city":"Cochabamba","lat":"-17.4211006164551","lng":"-66.1771011352539","name":"Jorge Wilsterman International Airport"}, 
{ "code":"LGR", "city":"Cochrane","lat":"-47.243591","lng":"-72.58815","name":"Cochrane Airport"}, 
{ "code":"DZI", "city":"Codazzi","lat":"10.096608","lng":"-73.2337","name":"Las Flores Airport"}, 
{ "code":"QCH", "city":"Colatina","lat":"-19.487476","lng":"-40.579362","name":"Colatina Airport"}, 
{ "code":"CYR", "city":"Colonia del Sacramento","lat":"-34.456402","lng":"-57.770599","name":"Colonia Laguna de Los Patos International Airport"}, 
{ "code":"CRD", "city":"Comodoro Rivadavia","lat":"-45.7853","lng":"-67.4655","name":"General E. Mosconi Airport"}, 
{ "code":"CDJ", "city":"Conceição do Araguaia","lat":"-8.34835","lng":"-49.301498","name":"Conceição do Araguaia Airport"}, 
{ "code":"CCP", "city":"Concepcion","lat":"-36.772701","lng":"-73.063103","name":"Carriel Sur Airport"}, 
{ "code":"CEP", "city":"Concepción","lat":"-16.142688","lng":"-62.026595","name":"Concepción Airport"}, 
{ "code":"CIO", "city":"Concepción","lat":"-23.440334","lng":"-57.429206","name":"Aeropuerto Nacional Tte. Cnel. Carmelo Peralta"}, 
{ "code":"COC", "city":"Concordia","lat":"-31.2969","lng":"-57.9966","name":"Comodoro Pierrestegui Airport"}, 
{ "code":"CCI", "city":"Concórdia","lat":"-27.180511","lng":"-52.051755","name":"Olavo Cecco Rigon Airport"}, 
{ "code":"COG", "city":"Condoto","lat":"5.072007","lng":"-76.676373","name":"Mandinga Airport"}, 
{ "code":"CFO", "city":"Confresa","lat":"-10.633296","lng":"-51.565836","name":"Confresa Airport"}, 
{ "code":"CPO", "city":"Copiapo","lat":"-27.2611999512","lng":"-70.7791976929","name":"Desierto de Atacama Airport"}, 
{ "code":"COW", "city":"Coquimbo","lat":"-30.198889","lng":"-71.246944","name":"Tambillos Airport"}, 
{ "code":"COR", "city":"Cordoba","lat":"-31.323601","lng":"-64.208","name":"Ingeniero Ambrosio Taravella Airport"}, 
{ "code":"CKO", "city":"Cornélio Procópio","lat":"-23.152711","lng":"-50.602868","name":"Cornélio Procópio Airport"}, 
{ "code":"CZE", "city":"Coro","lat":"11.414944","lng":"-69.680901","name":"José Leonardo Chirinos Airport"}, 
{ "code":"CSZ", "city":"Coronel Suarez","lat":"-37.446098","lng":"-61.889301","name":"Brigadier D.H.E. Ruiz Airport"}, 
{ "code":"CZU", "city":"Corozal","lat":"9.33274","lng":"-75.2856","name":"Las Brujas Airport"}, 
{ "code":"EEA", "city":"Correia Pinto","lat":"-27.634128","lng":"-50.358253","name":"Planalto Serrano Regional Airport"}, 
{ "code":"CNQ", "city":"Corrientes","lat":"-27.4455","lng":"-58.7619","name":"Corrientes Airport"}, 
{ "code":"TDP", "city":"Corrientes","lat":"-3.80601","lng":"-75.039299","name":"Trompeteros Airport"}, 
{ "code":"CMG", "city":"Corumbá","lat":"-19.01193","lng":"-57.672772","name":"Corumbá International Airport"}, 
{ "code":"CQS", "city":"Costa Marques","lat":"-12.4211","lng":"-64.251602","name":"Costa Marques Airport"}, 
{ "code":"OTT", "city":"Cotriguaçu","lat":"-9.898611","lng":"-58.581944","name":"Andre Maggi Airport"}, 
{ "code":"CVE", "city":"Coveñas","lat":"9.40092","lng":"-75.6913","name":"Coveñas Airport"}, 
{ "code":"GXQ", "city":"Coyhaique","lat":"-45.5942","lng":"-72.106102","name":"Teniente Vidal Airport"}, 
{ "code":"JCS", "city":"Crateús","lat":"-5.21135","lng":"-40.704201","name":"Crateús Airport"}, 
{ "code":"RAV", "city":"Cravo Norte","lat":"6.316404","lng":"-70.21137","name":"Cravo Norte Airport"}, 
{ "code":"CCM", "city":"Criciúma","lat":"-28.725743","lng":"-49.424475","name":"Forquilhinha - Criciúma  Airport"}, 
{ "code":"IDO", "city":"Cristalândia","lat":"-11.5722999572754","lng":"-50.6661987304687","name":"Santa Izabel do Morro Airport"}, 
{ "code":"JJD", "city":"Cruz","lat":"-2.906425","lng":"-40.357338","name":"Comandante Ariston Pessoa Airport"}, 
{ "code":"CZB", "city":"Cruz Alta","lat":"-28.657934","lng":"-53.610095","name":"Carlos Ruhl Airport"}, 
{ "code":"CZS", "city":"Cruzeiro Do Sul","lat":"-7.59991","lng":"-72.769501","name":"Cruzeiro do Sul Airport"}, 
{ "code":"CUC", "city":"Cúcuta","lat":"7.92757","lng":"-72.5115","name":"Camilo Daza International Airport"}, 
{ "code":"CUE", "city":"Cuenca","lat":"-2.88947","lng":"-78.984398","name":"Mariscal Lamar Airport"}, 
{ "code":"CGB", "city":"Cuiabá","lat":"-15.6529","lng":"-56.116699","name":"Marechal Rondon Airport"}, 
{ "code":"BFH", "city":"Curitiba","lat":"-25.4051","lng":"-49.231998","name":"Bacacheri Airport"}, 
{ "code":"CWB", "city":"Curitiba","lat":"-25.5285","lng":"-49.1758","name":"Afonso Pena Airport"}, 
{ "code":"QCP", "city":"Currais Novos","lat":"-6.28083276748657","lng":"-36.5402793884277","name":"Currais Novos Airport"}, 
{ "code":"CUI", "city":"Currillo","lat":"4.666667","lng":"-72","name":"Currillo Airport"}, 
{ "code":"CPU", "city":"Cururupu","lat":"-1.820006","lng":"-44.864065","name":"Cururupu Airport"}, 
{ "code":"UZU", "city":"Curuzu Cuatia","lat":"-29.7706","lng":"-57.9789","name":"Curuzu Cuatia Airport"}, 
{ "code":"CUZ", "city":"Cusco","lat":"-13.5356998444","lng":"-71.9387969971","name":"Alejandro Velasco Astete International Airport"}, 
{ "code":"CUT", "city":"Cutral-Co","lat":"-38.939701","lng":"-69.264603","name":"Cutral-Co Airport"}, 
{ "code":"MHC", "city":"Dalcahue","lat":"-42.340388","lng":"-73.715693","name":"Mocopulli Airport"}, 
{ "code":"DTI", "city":"Diamantina","lat":"-18.232000351","lng":"-43.6503982544","name":"Diamantina Airport"}, 
{ "code":"DMT", "city":"Diamantino","lat":"-14.3768997192383","lng":"-56.4003982543945","name":"Diamantino Airport"}, 
{ "code":"DNO", "city":"Dianópolis","lat":"-11.5953998566","lng":"-46.846698761","name":"Dianópolis Airport"}, 
{ "code":"DIQ", "city":"Divinópolis","lat":"-20.180700302124","lng":"-44.870899200439","name":"Brigadeiro Cabral Airport"}, 
{ "code":"DOE", "city":"Djumu-Djomoe","lat":"4.005713","lng":"-55.481644","name":"Djumu-Djomoe Airport"}, 
{ "code":"DOU", "city":"Dourados","lat":"-22.2019","lng":"-54.926601","name":"Dourados Airport"}, 
{ "code":"DRJ", "city":"Drietabbetje","lat":"4.111359","lng":"-54.672766","name":"Drietabbetje Airport"}, 
{ "code":"DZO", "city":"Durazno","lat":"-33.358898","lng":"-56.499199","name":"Santa Bernardina International Airport"}, 
{ "code":"ERN", "city":"Eirunepé","lat":"-6.63953","lng":"-69.879799","name":"Eirunepé Airport"}, 
{ "code":"EBG", "city":"El Bagre","lat":"7.59647","lng":"-74.8089","name":"El Bagre Airport"}, 
{ "code":"MHW", "city":"El Bañado","lat":"-19.827","lng":"-63.960999","name":"Monteagudo Airport"}, 
{ "code":"ELB", "city":"El Banco","lat":"9.04554","lng":"-73.9749","name":"Las Flores Airport"}, 
{ "code":"EHL", "city":"El Bolsón","lat":"-41.943199","lng":"-71.532303","name":"El Bolsón Airfield"}, 
{ "code":"FTE", "city":"El Calafate","lat":"-50.2803","lng":"-72.053101","name":"El Calafate - Commander Armando Tola International Airport"}, 
{ "code":"ECR", "city":"El Charco","lat":"2.44944444444","lng":"-78.0941666667","name":"El Charco Airport"}, 
{ "code":"ELO", "city":"El Dorado","lat":"-26.397499","lng":"-54.574699","name":"El Dorado Airport"}, 
{ "code":"ECO", "city":"El Encanto","lat":"-1.75333333333","lng":"-73.2047222222","name":"El Encanto Airport"}, 
{ "code":"EMX", "city":"El Maitén","lat":"-42.029202","lng":"-71.172501","name":"El Maitén Airport"}, 
{ "code":"EPA", "city":"El Palomar","lat":"-34.6099","lng":"-58.6126","name":"El Palomar Airport"}, 
{ "code":"ESR", "city":"El Salvador","lat":"-26.3111","lng":"-69.765198","name":"Ricardo García Posada Airport"}, 
{ "code":"SOM", "city":"El Tigre","lat":"8.9451465606689","lng":"-64.151084899902","name":"San Tomé Airport"}, 
{ "code":"ELX", "city":"El Tigre","lat":"8.833546","lng":"-64.20828","name":"El Tigre Airport"}, 
{ "code":"VIG", "city":"El Vigía","lat":"8.624139","lng":"-71.672668","name":"Juan Pablo Pérez Alfonso Airport"}, 
{ "code":"ENO", "city":"Encarnación","lat":"-27.227537","lng":"-55.837584","name":"Aeropuerto Internacional Tte. Amín Ayub González"}, 
{ "code":"ERM", "city":"Erechim","lat":"-27.663614","lng":"-52.271489","name":"Erechim Airport"}, 
{ "code":"EQS", "city":"Esquel","lat":"-42.908001","lng":"-71.139503","name":"Esquel Brigadier Antonio Parodi International Airport"}, 
{ "code":"FEJ", "city":"Feijó","lat":"-8.141213","lng":"-70.340821","name":"Feijó Airport"}, 
{ "code":"FEC", "city":"Feira de Santana","lat":"-12.200694","lng":"-38.906164","name":"João Durval Carneiro Airport"}, 
{ "code":"FEN", "city":"Fernando de Noronha","lat":"-3.854471","lng":"-32.423302","name":"Fernando de Noronha Airport"}, 
{ "code":"FLM", "city":"Filadelfia","lat":"-22.354611","lng":"-60.053211","name":"Aeródromo de Filadelfia"}, 
{ "code":"FLA", "city":"Florencia","lat":"1.58919","lng":"-75.5644","name":"Gustavo Artunduaga Paredes Airport"}, 
{ "code":"FLB", "city":"Floriano","lat":"-6.84639","lng":"-43.077301","name":"Cangapara Airport"}, 
{ "code":"FLN", "city":"Florianópolis","lat":"-27.670279","lng":"-48.552502","name":"Hercílio Luz International Airport"}, 
{ "code":"FBA", "city":"Fonte Boa","lat":"-2.53260993958","lng":"-66.0831985474","name":"Fonte Boa Airport"}, 
{ "code":"FMA", "city":"Formosa","lat":"-26.2127","lng":"-58.2281","name":"Formosa National Airport"}, 
{ "code":"FOR", "city":"Fortaleza","lat":"-3.775833","lng":"-38.532222","name":"Pinto Martins International Airport"}, 
{ "code":"ALD", "city":"Fortaleza","lat":"-11.65018","lng":"-69.229614","name":"Alerta Airport"}, 
{ "code":"IGU", "city":"Foz do Iguaçu","lat":"-25.594167","lng":"-54.489444","name":"Cataratas International Airport"}, 
{ "code":"FRC", "city":"Franca","lat":"-20.592199","lng":"-47.3829","name":"Tenente Lund Pressoto Airport"}, 
{ "code":"FBE", "city":"Francisco Beltrão","lat":"-26.05938","lng":"-53.063827","name":"Paulo Abdala Airport"}, 
{ "code":"FRT", "city":"Frutillar","lat":"-41.051666","lng":"-73.35111","name":"El Avellano Airport"}, 
{ "code":"OLK", "city":"Fuerte Olimpo","lat":"-21.045724","lng":"-57.882935","name":"Aeródromo de Fuerte"}, 
{ "code":"FDA", "city":"Fundación","lat":"10.5333","lng":"-74.2","name":"Fundación Airport"}, 
{ "code":"FFU", "city":"Futaleufu","lat":"-43.189201","lng":"-71.851097","name":"Futaleufú Airport"}, 
{ "code":"QGP", "city":"Garanhuns","lat":"-8.83428","lng":"-36.4716","name":"Garanhuns Airport"}, 
{ "code":"GPO", "city":"General Pico","lat":"-35.696201","lng":"-63.758301","name":"General Pico Airport"}, 
{ "code":"GNR", "city":"General Roca","lat":"-39.000702","lng":"-67.620499","name":"Dr. Arturo H. Illia Airport"}, 
{ "code":"VGS", "city":"General Villegas","lat":"-34.995728","lng":"-62.999725","name":"General Villegas Airport"}, 
{ "code":"GEO", "city":"Georgetown","lat":"6.49855","lng":"-58.254101","name":"Cheddi Jagan International Airport"}, 
{ "code":"GIR", "city":"Girardot","lat":"4.27624","lng":"-74.7967","name":"Santiago Vila Airport"}, 
{ "code":"GGS", "city":"Gobernador Gregores","lat":"-48.7831","lng":"-70.150002","name":"Gobernador Gregores Airport"}, 
{ "code":"GYN", "city":"Goiânia","lat":"-16.632","lng":"-49.220699","name":"Santa Genoveva Airport"}, 
{ "code":"GVR", "city":"Governador Valadares","lat":"-18.895882","lng":"-41.982869","name":"Coronel Altino Machado Airport"}, 
{ "code":"OYA", "city":"Goya","lat":"-29.1058","lng":"-59.2189","name":"Goya Airport"}, 
{ "code":"LRV", "city":"Gran Roque Island","lat":"11.946935","lng":"-66.668333","name":"Los Roques Airport"}, 
{ "code":"GCV", "city":"Gravatai","lat":"-29.9494","lng":"-50.98505","name":"Gravatai Airport"}, 
{ "code":"GCA", "city":"Guacamayas","lat":"2.283333","lng":"-74.95","name":"Guacamayas Airport"}, 
{ "code":"GDP", "city":"Guadalupe","lat":"-6.78221988677979","lng":"-43.5821990966797","name":"Guadalupe Airport"}, 
{ "code":"GGJ", "city":"Guaíra","lat":"-24.0811","lng":"-54.1917","name":"Guaíra Airport"}, 
{ "code":"GJM", "city":"Guajará-Mirim","lat":"-10.78641","lng":"-65.28486","name":"Guajará-Mirim Airport"}, 
{ "code":"GHU", "city":"Gualeguaychu","lat":"-33.005567","lng":"-58.612833","name":"Gualeguaychu Airport"}, 
{ "code":"GAA", "city":"Guamal","lat":"9.15","lng":"-74.233333","name":"Guamal Airport"}, 
{ "code":"GNM", "city":"Guanambi","lat":"-14.2082","lng":"-42.746101","name":"Guanambi Airport"}, 
{ "code":"GUQ", "city":"Guanare","lat":"9.026944","lng":"-69.75515","name":"Guanare Airport"}, 
{ "code":"GPI", "city":"Guapi","lat":"2.57013","lng":"-77.897969","name":"Juan Casiano Airport"}, 
{ "code":"GUZ", "city":"Guarapari","lat":"-20.6465","lng":"-40.491901","name":"Guarapari Airport"}, 
{ "code":"GPB", "city":"Guarapuava","lat":"-25.388327","lng":"-51.52349","name":"Tancredo Thomas de Faria Airport"}, 
{ "code":"GUJ", "city":"Guaratinguetá","lat":"-22.791599","lng":"-45.2048","name":"Edu Chaves Field"}, 
{ "code":"CLZ", "city":"Guarico","lat":"8.924656","lng":"-67.417091","name":"Calabozo Airport"}, 
{ "code":"SSZ", "city":"Guarujá","lat":"-23.928192","lng":"-46.300195","name":"Santos Nero Moura Air Base / Guarujá Airport"}, 
{ "code":"GDO", "city":"Guasdualito","lat":"7.210834","lng":"-70.756386","name":"Guasdualito Airport"}, 
{ "code":"LPJ", "city":"Guayabal","lat":"6.57805","lng":"-66.816902","name":"Armando Schwarck Airport"}, 
{ "code":"GYE", "city":"Guayaquil","lat":"-2.15742","lng":"-79.883598","name":"José Joaquín de Olmedo International Airport"}, 
{ "code":"GYA", "city":"Guayaramerín","lat":"-10.88856","lng":"-65.380955","name":"Guayaramerín Airport"}, 
{ "code":"GMS", "city":"Guimarães","lat":"-2.109444","lng":"-44.651114","name":"Antônio Guerreiro Airport"}, 
{ "code":"GRP", "city":"Gurupi","lat":"-11.7396","lng":"-49.132198","name":"Gurupi Airport"}, 
{ "code":"HTZ", "city":"Hato Corozal","lat":"6.153311","lng":"-71.761969","name":"Hato Corozal Airport"}, 
{ "code":"HGE", "city":"Higuerote","lat":"10.462474","lng":"-66.092779","name":"Higuerote Airport"}, 
{ "code":"HRZ", "city":"Horizontina","lat":"-27.6383","lng":"-54.3391","name":"Walter Bündchen Airport"}, 
{ "code":"HUU", "city":"Huánuco","lat":"-9.87880992889404","lng":"-76.2048034667969","name":"Alferez Fap David Figueroa Fernandini Airport"}, 
{ "code":"HUW", "city":"Humaitá","lat":"-7.53212022781","lng":"-63.072101593","name":"Humaitá Airport"}, 
{ "code":"IBE", "city":"Ibagué","lat":"4.42161","lng":"-75.1333","name":"Perales Airport"}, 
{ "code":"IBP", "city":"Iberia","lat":"-11.4116","lng":"-69.488701","name":"Iberia Airport"}, 
{ "code":"QIG", "city":"Iguatu","lat":"-6.346319","lng":"-39.294448","name":"Iguatu Airport"}, 
{ "code":"IJU", "city":"Ijuí","lat":"-28.368711","lng":"-53.846568","name":"João Batista Bos Filho Airport"}, 
{ "code":"IOS", "city":"Ilhéus","lat":"-14.815929","lng":"-39.033458","name":"Bahia - Jorge Amado Airport"}, 
{ "code":"ILQ", "city":"Ilo","lat":"-17.695","lng":"-71.344002","name":"General Jorge Fernandez Maldon Airport"}, 
{ "code":"IMB", "city":"Imbaimadai","lat":"5.70811","lng":"-60.294201","name":"Imbaimadai Airport"}, 
{ "code":"IMP", "city":"Imperatriz","lat":"-5.53129","lng":"-47.459999","name":"Prefeito Renato Moreira Airport"}, 
{ "code":"IGB", "city":"Ingeniero Jacobacci","lat":"-41.3209","lng":"-69.574898","name":"Ingeniero Jacobacci - Captain H R Bordón Airport"}, 
{ "code":"IPN", "city":"Ipatinga","lat":"-19.470699","lng":"-42.487598","name":"Usiminas Airport"}, 
{ "code":"IPI", "city":"Ipiales","lat":"0.861946","lng":"-77.671783","name":"San Luis Airport"}, 
{ "code":"IPU", "city":"Ipiaú","lat":"-14.173538","lng":"-39.68399","name":"Ipiaú Airport"}, 
{ "code":"IQQ", "city":"Iquique","lat":"-20.5352","lng":"-70.181297","name":"Diego Aracena Airport"}, 
{ "code":"IQT", "city":"Iquitos","lat":"-3.78474","lng":"-73.3088","name":"Coronel FAP Francisco Secada Vignetta International Airport"}, 
{ "code":"IRE", "city":"Irecê","lat":"-11.3399000167847","lng":"-41.8470001220703","name":"Irecê Airport"}, 
{ "code":"ISD", "city":"Iscuandé","lat":"2.445825","lng":"-77.981753","name":"Santa Bárbara Airport"}, 
{ "code":"GPS", "city":"Isla Baltra","lat":"-0.453758","lng":"-90.2659","name":"Seymour Galapagos Ecological Airport"}, 
{ "code":"ICC", "city":"Isla de Coche","lat":"10.794432","lng":"-63.98159","name":"Andrés Miguel Salazar Marcano Airport"}, 
{ "code":"IPC", "city":"Isla De Pascua","lat":"-27.1648006439","lng":"-109.42199707","name":"Mataveri Airport"}, 
{ "code":"PMV", "city":"Isla Margarita","lat":"10.9126033782959","lng":"-63.9665985107422","name":"Del Caribe Santiago Mariño International Airport"}, 
{ "code":"ITN", "city":"Itabuna","lat":"-14.8105","lng":"-39.290401","name":"Tertuliano Guedes de Pinho Airport"}, 
{ "code":"ITA", "city":"Itacoatiara","lat":"-3.126539","lng":"-58.481668","name":"Itacoatiara Airport"}, 
{ "code":"ITB", "city":"Itaituba","lat":"-4.242131","lng":"-56.000651","name":"Itaituba Airport"}, 
{ "code":"ITJ", "city":"Itajaí","lat":"-26.983055","lng":"-48.816387","name":"Campo Comandantes Airport"}, 
{ "code":"ITI", "city":"Itambacuri","lat":"-18.147591","lng":"-41.715044","name":"Fazenda Americana Airport"}, 
{ "code":"JTN", "city":"Itanhaém","lat":"-24.159729","lng":"-46.790604","name":"Itanhaém Airport"}, 
{ "code":"ITP", "city":"Itaperuna","lat":"-21.2192993164","lng":"-41.8759002686","name":"Itaperuna Airport"}, 
{ "code":"QIT", "city":"Itapetinga","lat":"-15.2445001602173","lng":"-40.2771987915039","name":"Itapetinga Airport"}, 
{ "code":"ITQ", "city":"Itaqui","lat":"-29.1730995178223","lng":"-56.5367012023926","name":"Itaqui Airport"}, 
{ "code":"BVK", "city":"Itenes","lat":"-13.605556","lng":"-63.879444","name":"Huacaraje Airport"}, 
{ "code":"ITE", "city":"Ituberá","lat":"-13.731571","lng":"-39.140377","name":"Ituberá Airport"}, 
{ "code":"ITR", "city":"Itumbiara","lat":"-18.4447","lng":"-49.213402","name":"Francisco Vilela do Amaral Airport"}, 
{ "code":"JCR", "city":"Jacareacanga","lat":"-6.23316","lng":"-57.776901","name":"Jacareacanga Airport"}, 
{ "code":"JCM", "city":"Jacobina","lat":"-11.1632","lng":"-40.553101","name":"Jacobina Airport"}, 
{ "code":"JAE", "city":"Jaén","lat":"-5.59248","lng":"-78.774002","name":"Shumba Airport"}, 
{ "code":"JJG", "city":"Jaguaruna","lat":"-28.6753","lng":"-49.0596","name":"Humberto Ghizzo Bortoluzzi Regional Airport"}, 
{ "code":"JLS", "city":"Jales","lat":"-20.292296","lng":"-50.545546","name":"Jales Airport"}, 
{ "code":"JNA", "city":"Januária","lat":"-15.4738","lng":"-44.385502","name":"Januária Airport"}, 
{ "code":"JTI", "city":"Jataí","lat":"-17.8299007416","lng":"-51.7729988098","name":"Jataí Airport"}, 
{ "code":"JAU", "city":"Jauja","lat":"-11.7831001282","lng":"-75.4733963013","name":"Francisco Carle Airport"}, 
{ "code":"JEQ", "city":"Jequié","lat":"-13.8777","lng":"-40.071602","name":"Jequié Airport"}, 
{ "code":"JPR", "city":"Ji-Paraná","lat":"-10.870743","lng":"-61.846675","name":"Ji-Paraná Airport"}, 
{ "code":"JIP", "city":"Jipijapa","lat":"-1","lng":"-80.6666641235352","name":"Jipijapa Airport"}, 
{ "code":"JCB", "city":"Joaçaba","lat":"-27.171514","lng":"-51.553327","name":"Santa Terezinha Airport"}, 
{ "code":"JPA", "city":"João Pessoa","lat":"-7.148691","lng":"-34.950554","name":"Presidente Castro Pinto International Airport"}, 
{ "code":"JOI", "city":"Joinville","lat":"-26.224501","lng":"-48.797401","name":"Lauro Carneiro de Loyola Airport"}, 
{ "code":"JJI", "city":"Juanjuí","lat":"-7.1691","lng":"-76.7286","name":"Juanjui Airport"}, 
{ "code":"JUA", "city":"Juara","lat":"-11.2966","lng":"-57.5495","name":"Inácio Luís do Nascimento Airport"}, 
{ "code":"JDO", "city":"Juazeiro do Norte","lat":"-7.21932","lng":"-39.269096","name":"Orlando Bezerra de Menezes Airport"}, 
{ "code":"JIA", "city":"Juína","lat":"-11.419444","lng":"-58.701668","name":"Juína Airport"}, 
{ "code":"IZA", "city":"Juiz de Fora","lat":"-21.513086","lng":"-43.173069","name":"Presidente Itamar Franco Airport"}, 
{ "code":"JDF", "city":"Juiz de Fora","lat":"-21.791482","lng":"-43.386072","name":"Francisco de Assis Airport"}, 
{ "code":"JUL", "city":"Juliaca","lat":"-15.4671001434326","lng":"-70.158203125","name":"Inca Manco Capac International Airport"}, 
{ "code":"QDV", "city":"Jundiaí","lat":"-23.180861","lng":"-46.943921","name":"Comte. Rolim Adolfo Amaro–Jundiaí State Airport"}, 
{ "code":"JUO", "city":"Juradó","lat":"7.07181","lng":"-77.727117","name":"Juradó Airport"}, 
{ "code":"JRN", "city":"Juruena","lat":"-10.305833","lng":"-58.489445","name":"Juruena Airport"}, 
{ "code":"JRT", "city":"Juruti","lat":"-2.186667","lng":"-56.090279","name":"Juruti Airport"}, 
{ "code":"KAI", "city":"Kaieteur Falls","lat":"5.177349","lng":"-59.48898","name":"Kaieteur International Airport"}, 
{ "code":"KAR", "city":"Kamarang","lat":"5.86534","lng":"-60.614201","name":"Kamarang Airport"}, 
{ "code":"KTV", "city":"Kamarata","lat":"5.7171","lng":"-62.33727","name":"Kamarata Airport"}, 
{ "code":"KRM", "city":"Karanambo","lat":"3.752572","lng":"-59.30902","name":"Karanambo Airport"}, 
{ "code":"KRG", "city":"Karasabai","lat":"4.03005","lng":"-59.54749","name":"Karasabai Airport"}, 
{ "code":"KCB", "city":"Kasikasima","lat":"3.15000009537","lng":"-55.716999054","name":"Tepoe Airstrip"}, 
{ "code":"KTO", "city":"Kato","lat":"4.64916","lng":"-59.832199","name":"Kato Airport"}, 
{ "code":"KAV", "city":"Kavanayén","lat":"5.593056","lng":"-61.763333","name":"Kavanayen Airport"}, 
{ "code":"KKG", "city":"Konawaruk","lat":"5.2684","lng":"-58.995","name":"Konawaruk Airport"}, 
{ "code":"BCG", "city":"Kumaka","lat":"7.640212","lng":"-58.961786","name":"Bemichi Airport"}, 
{ "code":"EAX", "city":"Kwatta","lat":"5.8604","lng":"-55.192","name":"Eduard Alexander Gummels Airport"}, 
{ "code":"LCR", "city":"La Chorrera","lat":"-1.456361","lng":"-72.801086","name":"Virgilio Barco Vargas (La Chorrera) Airport"}, 
{ "code":"LCM", "city":"La Cumbre","lat":"-31.0058","lng":"-64.531898","name":"La Cumbre Airport"}, 
{ "code":"PAL", "city":"La Dorada","lat":"5.48361","lng":"-74.6574","name":"German Olano Air Base"}, 
{ "code":"LMC", "city":"La Macarena","lat":"2.17565","lng":"-73.78674","name":"La Macarena Airport"}, 
{ "code":"MCJ", "city":"La Mina-Maicao","lat":"11.2325","lng":"-72.4901","name":"Jorge Isaac Airport"}, 
{ "code":"LPB", "city":"La Paz / El Alto","lat":"-16.5132999420166","lng":"-68.1922988891602","name":"El Alto International Airport"}, 
{ "code":"LPD", "city":"La Pedrera","lat":"-1.324882","lng":"-69.581294","name":"La Pedrera Airport"}, 
{ "code":"LPG", "city":"La Plata","lat":"-34.9722","lng":"-57.8947","name":"La Plata Airport"}, 
{ "code":"LPE", "city":"La Primavera","lat":"5.4776","lng":"-70.4212","name":"La Primavera Airport"}, 
{ "code":"IRJ", "city":"La Rioja","lat":"-29.381599","lng":"-66.795799","name":"Capitan V A Almonacid Airport"}, 
{ "code":"LSC", "city":"La Serena-Coquimbo","lat":"-29.916201","lng":"-71.199501","name":"La Florida Airport"}, 
{ "code":"LOH", "city":"La Toma (Catamayo)","lat":"-3.995606","lng":"-79.371902","name":"Ciudad de Catamayo Airport"}, 
{ "code":"URI", "city":"La Uribe","lat":"3.2375","lng":"-74.347222","name":"Uribe Airport"}, 
{ "code":"LBR", "city":"Lábrea","lat":"-7.27897","lng":"-64.769501","name":"Lábrea Airport"}, 
{ "code":"CVH", "city":"Lafontaine","lat":"-37.851398","lng":"-71.009201","name":"Caviahue Airport"}, 
{ "code":"LAJ", "city":"Lages","lat":"-27.782101","lng":"-50.281502","name":"Lages Airport"}, 
{ "code":"LGQ", "city":"Lago Agrio","lat":"0.0930560007691","lng":"-76.8675003052","name":"Nueva Loja Airport"}, 
{ "code":"LGY", "city":"Lagunillas","lat":"10.1239995956421","lng":"-71.2379989624023","name":"Lagunillas Airport"}, 
{ "code":"LHS", "city":"Las Heras","lat":"-46.538517","lng":"-68.965323","name":"Las Heras Airport"}, 
{ "code":"LLS", "city":"Las Lomitas","lat":"-24.721399","lng":"-60.548801","name":"Alferez Armando Rodriguez Airport"}, 
{ "code":"VVN", "city":"Las Malvinas","lat":"-11.854861","lng":"-72.939332","name":"Las Malvinas/Echarate Airport"}, 
{ "code":"LTX", "city":"Latacunga","lat":"-0.906833","lng":"-78.615799","name":"Cotopaxi International Airport"}, 
{ "code":"VRZ", "city":"Lavras","lat":"-21.240601","lng":"-44.963902","name":"Padre Israel Airport"}, 
{ "code":"LEC", "city":"Lençóis","lat":"-12.4823","lng":"-41.277","name":"Coronel Horácio de Mattos Airport"}, 
{ "code":"LEP", "city":"Leopoldina","lat":"-21.468226","lng":"-42.727076","name":"Leopoldina Airport"}, 
{ "code":"LTM", "city":"Lethem","lat":"3.37276","lng":"-59.789398","name":"Lethem Airport"}, 
{ "code":"LET", "city":"Leticia","lat":"-4.19355","lng":"-69.9432","name":"Alfredo Vásquez Cobo International Airport"}, 
{ "code":"LIM", "city":"Lima","lat":"-12.0219","lng":"-77.114305","name":"Jorge Chávez International Airport"}, 
{ "code":"ZLR", "city":"Linares","lat":"-35.861698","lng":"-71.548599","name":"Municipal de Linares Airport"}, 
{ "code":"LHN", "city":"Linhares","lat":"-19.355202","lng":"-40.07128","name":"Linhares Municipal Airport"}, 
{ "code":"LIP", "city":"Lins","lat":"-21.663491","lng":"-49.729954","name":"Lins Airport"}, 
{ "code":"LCP", "city":"Loncopue","lat":"-38.081902","lng":"-70.643898","name":"Loncopue Airport"}, 
{ "code":"LDB", "city":"Londrina","lat":"-23.334375","lng":"-51.128365","name":"Governor José Richa Airport"}, 
{ "code":"LOI", "city":"Lontras","lat":"-27.1599998474","lng":"-49.5424995422","name":"Helmuth Baungarten Airport"}, 
{ "code":"LOB", "city":"Los Andes","lat":"-32.814201","lng":"-70.646698","name":"San Rafael Airport"}, 
{ "code":"LSQ", "city":"Los Angeles","lat":"-37.401699","lng":"-72.4254","name":"María Dolores Airport"}, 
{ "code":"LMD", "city":"Los Menucos","lat":"-40.817699","lng":"-68.074699","name":"Los Menucos Airport"}, 
{ "code":"LVR", "city":"Lucas do Rio Verde","lat":"-13.037861","lng":"-55.95025","name":"Municipal Bom Futuro Airport"}, 
{ "code":"LUB", "city":"Lumid Pau","lat":"2.39392995834","lng":"-59.4410018921","name":"Lumid Pau Airport"}, 
{ "code":"USI", "city":"Mabaruma","lat":"8.20017","lng":"-59.777965","name":"Mabaruma Airport"}, 
{ "code":"MEA", "city":"Macaé","lat":"-22.343","lng":"-41.765999","name":"Macaé Benedito Lacerda Airport"}, 
{ "code":"NAD", "city":"Macanal","lat":"2.80898","lng":"-67.62189","name":"Macanal Airport"}, 
{ "code":"MCP", "city":"Macapá","lat":"0.050664","lng":"-51.072201","name":"Macapá - Alberto Alcolumbre International Airport"}, 
{ "code":"MRR", "city":"Macará","lat":"-4.37823009491","lng":"-79.9410018921","name":"Jose Maria Velasco Ibarra Airport"}, 
{ "code":"XMS", "city":"Macas","lat":"-2.29917001724243","lng":"-78.1207962036133","name":"Coronel E Carvajal Airport"}, 
{ "code":"MCZ", "city":"Maceió","lat":"-9.51081","lng":"-35.791698","name":"Zumbi dos Palmares Airport"}, 
{ "code":"MGN", "city":"Magangué","lat":"9.28474","lng":"-74.8461","name":"Baracoa Airport"}, 
{ "code":"MGD", "city":"Magdalena","lat":"-13.2607483767","lng":"-64.0607643127","name":"Magdalena Airport"}, 
{ "code":"MHA", "city":"Mahdia","lat":"5.272845","lng":"-59.149296","name":"Mahdia Airport"}, 
{ "code":"VEG", "city":"Maikwak","lat":"4.898172","lng":"-59.817027","name":"Maikwak Airport"}, 
{ "code":"CCS", "city":"Maiquetía","lat":"10.601194","lng":"-66.991222","name":"Maiquetía Simón Bolívar International Airport"}, 
{ "code":"LGS", "city":"Malargue","lat":"-35.493599","lng":"-69.574303","name":"Comodoro D.R. Salomón Airport"}, 
{ "code":"MAO", "city":"Manaus","lat":"-3.03861","lng":"-60.049702","name":"Eduardo Gomes International Airport"}, 
{ "code":"PLL", "city":"Manaus","lat":"-3.14604","lng":"-59.986301","name":"Ponta Pelada Airport / Manaus Air Base"}, 
{ "code":"PTL", "city":"Máncora","lat":"-4.08687","lng":"-81.02577","name":"Walter Braedt Segú Airport"}, 
{ "code":"JMA", "city":"Manhuaçu","lat":"-20.259722","lng":"-42.183887","name":"Aeroporto Elias Breder Airport"}, 
{ "code":"MNX", "city":"Manicoré","lat":"-5.81138","lng":"-61.278301","name":"Manicoré Airport"}, 
{ "code":"MZL", "city":"Manizales","lat":"5.0296","lng":"-75.4647","name":"La Nubia Airport"}, 
{ "code":"MEC", "city":"Manta","lat":"-0.94607800245285","lng":"-80.6788024902344","name":"Eloy Alfaro International Airport"}, 
{ "code":"MQD", "city":"Maquinchao","lat":"-41.2430992126","lng":"-68.7078018188","name":"Maquinchao Airport"}, 
{ "code":"MDQ", "city":"Mar del Plata","lat":"-37.9342","lng":"-57.5733","name":"Ástor Piazzola International Airport"}, 
{ "code":"MAB", "city":"Marabá","lat":"-5.36859","lng":"-49.138","name":"João Correa da Rocha Airport"}, 
{ "code":"MAR", "city":"Maracaibo","lat":"10.5582084656","lng":"-71.7278594971","name":"La Chinita International Airport"}, 
{ "code":"MYC", "city":"Maracay","lat":"10.249978","lng":"-67.649422","name":"Escuela Mariscal Sucre Airport"}, 
{ "code":"MUU", "city":"Maraú","lat":"-13.906082","lng":"-38.940804","name":"Barra Grande Airport"}, 
{ "code":"JMR", "city":"Maricá","lat":"-22.9195","lng":"-42.830898","name":"Maricá Airport"}, 
{ "code":"MII", "city":"Marília","lat":"-22.196899","lng":"-49.926485","name":"Frank Miloye Milenkowichi–Marília State Airport"}, 
{ "code":"MGF", "city":"Maringá","lat":"-23.47606","lng":"-52.016187","name":"Regional de Maringá - Sílvio Name Júnior Airport"}, 
{ "code":"MQU", "city":"Mariquita","lat":"5.21256","lng":"-74.8836","name":"Mariquita Airport"}, 
{ "code":"ESG", "city":"Mariscal Estigarribia","lat":"-22.046499","lng":"-60.6217","name":"Aeropuerto Internacional Dr. Luis Maria Argaña"}, 
{ "code":"MWJ", "city":"Matthews Ridge","lat":"7.487736","lng":"-60.185237","name":"Matthews Ridge Airport"}, 
{ "code":"MBK", "city":"Matupá","lat":"-10.170368","lng":"-54.953964","name":"Orlando Villas Boas Regional Airport"}, 
{ "code":"MUN", "city":"Maturín","lat":"9.749023","lng":"-63.153348","name":"José Tadeo Monagas International Airport"}, 
{ "code":"MBZ", "city":"Maués","lat":"-3.37217","lng":"-57.7248","name":"Maués Airport"}, 
{ "code":"MZA", "city":"Mazamari","lat":"-11.3254","lng":"-74.535598","name":"Mayor PNP Nancy Flores Paucar Airport"}, 
{ "code":"EOH", "city":"Medellín","lat":"6.219686","lng":"-75.590597","name":"Enrique Olaya Herrera Airport"}, 
{ "code":"MDE", "city":"Medellín","lat":"6.16454","lng":"-75.4231","name":"Jose Maria Córdova International Airport"}, 
{ "code":"MND", "city":"Medina","lat":"4.483687","lng":"-73.344739","name":"Medina Airport"}, 
{ "code":"MLZ", "city":"Melo","lat":"-32.337898","lng":"-54.216702","name":"Cerro Largo International Airport"}, 
{ "code":"MDZ", "city":"Mendoza","lat":"-32.8316993713","lng":"-68.7929000854","name":"El Plumerillo Airport"}, 
{ "code":"MDX", "city":"Mercedes","lat":"-29.221399","lng":"-58.087799","name":"Mercedes Airport"}, 
{ "code":"MRD", "city":"Mérida","lat":"8.582078","lng":"-71.161041","name":"Alberto Carnevalli Airport"}, 
{ "code":"RLO", "city":"Merlo","lat":"-32.384701","lng":"-65.186501","name":"Valle Del Conlara International Airport"}, 
{ "code":"LMX", "city":"Micay","lat":"2.841177","lng":"-77.237214","name":"Lopez de Micay Airport"}, 
{ "code":"MQH", "city":"Minaçu","lat":"-13.5491","lng":"-48.195301","name":"Minaçu Airport"}, 
{ "code":"MFS", "city":"Miraflores","lat":"1.35","lng":"-71.9444","name":"Miraflores Airport"}, 
{ "code":"MJR", "city":"Miramar","lat":"-38.2271","lng":"-57.8697","name":"Miramar Airport"}, 
{ "code":"MIX", "city":"Mirití-Paraná","lat":"-0.886017","lng":"-70.983446","name":"Miriti Parana Airport"}, 
{ "code":"MVP", "city":"Mitú","lat":"1.25366","lng":"-70.2339","name":"Fabio Alberto Leon Bentley Airport"}, 
{ "code":"MOJ", "city":"Moengo","lat":"5.6076","lng":"-54.4003","name":"Moengo Airstrip"}, 
{ "code":"MFB", "city":"Monfort","lat":"0.633333","lng":"-69.75","name":"Monfort Airport"}, 
{ "code":"MYM", "city":"Monkey Mountain","lat":"4.452267","lng":"-59.603126","name":"Monkey Mountain Airport"}, 
{ "code":"MTE", "city":"Monte Alegre","lat":"-1.9958","lng":"-54.0742","name":"Monte Alegre Airport"}, 
{ "code":"MCS", "city":"Monte Caseros","lat":"-30.2719","lng":"-57.6402","name":"Monte Caseros Airport"}, 
{ "code":"MTB", "city":"Montelíbano","lat":"7.97174","lng":"-75.4325","name":"Montelibano Airport"}, 
{ "code":"QGF", "city":"Montenegro","lat":"-29.7194004058838","lng":"-51.4893989562988","name":"Montenegro Airport"}, 
{ "code":"MTR", "city":"Montería","lat":"8.82374","lng":"-75.8258","name":"Los Garzones Airport"}, 
{ "code":"MOY", "city":"Monterrey","lat":"4.906926","lng":"-72.894809","name":"Monterrey Airport"}, 
{ "code":"MOC", "city":"Montes Claros","lat":"-16.706919","lng":"-43.818901","name":"Mário Ribeiro Airport"}, 
{ "code":"MHF", "city":"Morichal","lat":"1.75","lng":"-69.916667","name":"Morichal Airport"}, 
{ "code":"MQR", "city":"Mosquera","lat":"2.64955","lng":"-78.3361","name":"Mosquera Airport"}, 
{ "code":"MVF", "city":"Mossoró","lat":"-5.20192","lng":"-37.3643","name":"Dix-Sept Rosado Airport"}, 
{ "code":"MPN", "city":"Mount Pleasant","lat":"-51.8227996826172","lng":"-58.4472007751465","name":"Mount Pleasant Airport"}, 
{ "code":"MBP", "city":"Moyobamba","lat":"-6.018889","lng":"-76.988327","name":"Moyobamba Airport"}, 
{ "code":"CHD", "city":"Mucugê","lat":"-13.0312","lng":"-41.444099","name":"Mucugê Airport"}, 
{ "code":"MVS", "city":"Mucuri","lat":"-18.048901","lng":"-39.864321","name":"Mucuri Airport"}, 
{ "code":"ULS", "city":"Mulatos","lat":"8.64019","lng":"-76.71884","name":"Mulatos Airport"}, 
{ "code":"NNU", "city":"Nanuque","lat":"-17.823158","lng":"-40.329662","name":"Nanuque Airport"}, 
{ "code":"NAT", "city":"Natal","lat":"-5.769804","lng":"-35.366578","name":"São Gonçalo do Amarante - Governador Aluízio Alves International Airport"}, 
{ "code":"NVT", "city":"Navegantes","lat":"-26.879431","lng":"-48.650979","name":"Ministro Victor Konder International Airport"}, 
{ "code":"NZC", "city":"Nazca","lat":"-14.854","lng":"-74.961502","name":"Maria Reiche Neuman Airport"}, 
{ "code":"NEC", "city":"Necochea","lat":"-38.490746","lng":"-58.816337","name":"Necochea Airport"}, 
{ "code":"NCI", "city":"Necocli","lat":"8.454429","lng":"-76.779326","name":"Necocli Airport"}, 
{ "code":"NVA", "city":"Neiva","lat":"2.95015","lng":"-75.294","name":"Benito Salas Airport"}, 
{ "code":"NQN", "city":"Neuquen","lat":"-38.949001","lng":"-68.155701","name":"Presidente Peron Airport"}, 
{ "code":"QSX", "city":"New Amsterdam","lat":"6.244324","lng":"-57.474172","name":"New Amsterdam Airport"}, 
{ "code":"ICK", "city":"Nieuw Nickerie","lat":"5.955435","lng":"-57.040617","name":"Nieuw Nickerie - Major Henk Fernandes Airport"}, 
{ "code":"NQL", "city":"Niquelândia","lat":"-14.434869","lng":"-48.491615","name":"Niquelândia Airport"}, 
{ "code":"NVM", "city":"Nova Mutum","lat":"-13.821021","lng":"-56.038591","name":"Brigadeiro Eduardo Gomes Airport"}, 
{ "code":"NOK", "city":"Nova Xavantina","lat":"-14.697778","lng":"-52.347246","name":"Xavantina Airport"}, 
{ "code":"NVP", "city":"Novo Aripuanã","lat":"-5.11803","lng":"-60.364899","name":"Novo Aripuanã Airport"}, 
{ "code":"QHV", "city":"Novo Hamburgo","lat":"-29.6961002349854","lng":"-51.0816993713379","name":"Novo Hamburgo Airport"}, 
{ "code":"NPR", "city":"Novo Progresso","lat":"-7.125833","lng":"-55.400833","name":"Novo Progresso Airport"}, 
{ "code":"NUH", "city":"Nunchia","lat":"5.65","lng":"-72.2","name":"Nunchia Airport"}, 
{ "code":"NQU", "city":"Nuquí","lat":"5.710348","lng":"-77.261868","name":"Reyes Murillo Airport"}, 
{ "code":"OBI", "city":"Óbidos","lat":"-1.867981","lng":"-55.514596","name":"Óbidos Municipal Airport"}, 
{ "code":"OCV", "city":"Ocaña","lat":"8.31506","lng":"-73.3583","name":"Aguas Claras Airport"}, 
{ "code":"OGL", "city":"Ogle","lat":"6.80628","lng":"-58.1059","name":"Eugene F. Correia International Airport"}, 
{ "code":"OYK", "city":"Oiapoque","lat":"3.85412","lng":"-51.797056","name":"Oiapoque Airport"}, 
{ "code":"OVR", "city":"Olavarria","lat":"-36.889999","lng":"-60.216599","name":"Olavarria Airport"}, 
{ "code":"ORA", "city":"Orán","lat":"-23.1528","lng":"-64.329201","name":"Orán Airport"}, 
{ "code":"ORJ", "city":"Orinduik","lat":"4.72527","lng":"-60.035","name":"Orinduik Airport"}, 
{ "code":"TMT", "city":"Oriximiná","lat":"-1.4896","lng":"-56.396801","name":"Trombetas Airport"}, 
{ "code":"ORX", "city":"Oriximiná","lat":"-1.71408","lng":"-55.836201","name":"Oriximiná Airport"}, 
{ "code":"ORC", "city":"Orocue","lat":"4.79222","lng":"-71.3564","name":"Orocue Airport"}, 
{ "code":"ORU", "city":"Oruro","lat":"-17.962601","lng":"-67.076202","name":"Juan Mendoza Airport"}, 
{ "code":"ZOS", "city":"Osorno","lat":"-40.611198","lng":"-73.060997","name":"Cañal Bajo Carlos Hott Siebert Airport"}, 
{ "code":"OIA", "city":"Ourilândia do Norte","lat":"-6.762992","lng":"-51.04993","name":"Ourilândia do Norte Airport"}, 
{ "code":"OUS", "city":"Ourinhos","lat":"-22.966598","lng":"-49.912049","name":"Jornalista Benedito Pimentel Airport"}, 
{ "code":"OVL", "city":"Ovalle","lat":"-30.5592","lng":"-71.175598","name":"El Tuqui Airport"}, 
{ "code":"RON", "city":"Paipa","lat":"5.76454","lng":"-73.1054","name":"Juan Jose Rondon Airport"}, 
{ "code":"WAP", "city":"Palena","lat":"-43.611492","lng":"-71.805452","name":"Alto Palena Airport"}, 
{ "code":"PTM", "city":"Palmarito","lat":"7.575479","lng":"-70.174435","name":"Palmarito Airport"}, 
{ "code":"PMW", "city":"Palmas","lat":"-10.2915","lng":"-48.356998","name":"Brigadeiro Lysias Rodrigues Airport"}, 
{ "code":"OEM", "city":"Paloemeu","lat":"3.346051","lng":"-55.443707","name":"Vincent Fayks Airport"}, 
{ "code":"PYT", "city":"Paracatu","lat":"-17.242599","lng":"-46.883099","name":"Pedro Rabelo de Souza Airport"}, 
{ "code":"JPE", "city":"Paragominas","lat":"-3.019798","lng":"-47.316474","name":"Nagib Demachki Airport"}, 
{ "code":"LSP", "city":"Paraguaná","lat":"11.780775","lng":"-70.151497","name":"Josefa Camejo International Airport"}, 
{ "code":"PPH", "city":"Parai-tepuí","lat":"4.570275","lng":"-61.520262","name":"Perai-Tepuy Airport"}, 
{ "code":"PMT", "city":"Paramakatoi","lat":"4.699587","lng":"-59.713841","name":"Paramakatoi Airport"}, 
{ "code":"ORG", "city":"Paramaribo","lat":"5.811131","lng":"-55.1913","name":"Zorg en Hoop Airport"}, 
{ "code":"PRA", "city":"Parana","lat":"-31.7948","lng":"-60.4804","name":"General Urquiza Airport"}, 
{ "code":"PNG", "city":"Paranaguá","lat":"-25.5401","lng":"-48.5312","name":"Paranaguá Airport"}, 
{ "code":"PBB", "city":"Paranaíba","lat":"-19.6511993408203","lng":"-51.1994018554687","name":"Paranaíba Airport"}, 
{ "code":"PVI", "city":"Paranavaí","lat":"-23.089899","lng":"-52.488499","name":"Paranavaí Airport"}, 
{ "code":"EUO", "city":"Paratebueno","lat":"4.401295","lng":"-73.188381","name":"Paratebueno Airport"}, 
{ "code":"JPY", "city":"Paraty","lat":"-23.224044","lng":"-44.7234","name":"Paraty Airport"}, 
{ "code":"CKS", "city":"Parauapebas","lat":"-6.117841","lng":"-50.003372","name":"Carajás Airport"}, 
{ "code":"PIN", "city":"Parintins","lat":"-2.673521","lng":"-56.777625","name":"Parintins Airport"}, 
{ "code":"PHB", "city":"Parnaíba","lat":"-2.89375","lng":"-41.731998","name":"Parnaíba - Prefeito Doutor João Silva Filho International Airport"}, 
{ "code":"PRR", "city":"Paruima","lat":"5.81724","lng":"-61.055489","name":"Paruima Airport"}, 
{ "code":"AOL", "city":"Paso de los Libres","lat":"-29.6894","lng":"-57.1521","name":"Paso De Los Libres Airport"}, 
{ "code":"PFB", "city":"Passo Fundo","lat":"-28.243976","lng":"-52.32777","name":"Lauro Kurtz Airport"}, 
{ "code":"PSW", "city":"Passos","lat":"-20.7322006225586","lng":"-46.6618003845215","name":"Municipal José Figueiredo Airport"}, 
{ "code":"PTO", "city":"Pato Branco","lat":"-26.217184","lng":"-52.694463","name":"Juvenal Loureiro Cardoso Airport"}, 
{ "code":"JPO", "city":"Patos","lat":"-7.03899","lng":"-37.251598","name":"Aeroporto Brigadeiro Firmino Ayres"}, 
{ "code":"POJ", "city":"Patos de Minas","lat":"-18.672673","lng":"-46.491292","name":"Patos de Minas Airport"}, 
{ "code":"PAV", "city":"Paulo Afonso","lat":"-9.40088","lng":"-38.250599","name":"Paulo Afonso Airport"}, 
{ "code":"PYN", "city":"Payán","lat":"1.8","lng":"-78.166667","name":"Payán Airport"}, 
{ "code":"PDU", "city":"Paysandú","lat":"-32.3633","lng":"-58.061901","name":"Tydeo Larre Borges Airport"}, 
{ "code":"PZA", "city":"Paz De Ariporo","lat":"5.87615","lng":"-71.8866","name":"Paz De Ariporo Airport"}, 
{ "code":"PJC", "city":"Pedro Juan Caballero","lat":"-22.641427","lng":"-55.829993","name":"Aeropuerto Nacional Dr. Augusto Roberto Fuster"}, 
{ "code":"PEH", "city":"Pehuajó","lat":"-35.8446","lng":"-61.8576","name":"Comodoro Pedro Zanni Airport"}, 
{ "code":"PET", "city":"Pelotas","lat":"-31.717253","lng":"-52.327952","name":"João Simões Lopes Neto International Airport"}, 
{ "code":"PEI", "city":"Pereira","lat":"4.81267","lng":"-75.7395","name":"Matecaña International Airport"}, 
{ "code":"PMQ", "city":"Perito Moreno","lat":"-46.537899","lng":"-70.978699","name":"Perito Moreno Jalil Hamer Airport"}, 
{ "code":"PNZ", "city":"Petrolina","lat":"-9.362422","lng":"-40.569098","name":"Senador Nilo Coelho Airport"}, 
{ "code":"CPP", "city":"Pica","lat":"-20.7505","lng":"-68.683502","name":"Coposa Airport"}, 
{ "code":"PCS", "city":"Picos","lat":"-7.061385","lng":"-41.525871","name":"Picos Airport"}, 
{ "code":"SQB", "city":"Piedras","lat":"4.408333","lng":"-75.021667","name":"Santa Ana Airport"}, 
{ "code":"PIL", "city":"Pilar","lat":"-26.881981","lng":"-58.319067","name":"Aeródromo Don Carlos Miguel Gimenez"}, 
{ "code":"PBQ", "city":"Pimenta Bueno","lat":"-11.6416","lng":"-61.1791","name":"Pimenta Bueno Airport"}, 
{ "code":"PHI", "city":"Pinheiro","lat":"-2.477426","lng":"-45.105003","name":"Pinheiro Airport"}, 
{ "code":"PIQ", "city":"Pipillipai","lat":"5.356667","lng":"-60.381","name":"Pipillipai Airport"}, 
{ "code":"PIV", "city":"Pirapora","lat":"-17.3169002532959","lng":"-44.8602981567383","name":"Pirapora Airport"}, 
{ "code":"QPS", "city":"Pirassununga","lat":"-21.984692","lng":"-47.341207","name":"Campo Fontenelle"}, 
{ "code":"PIO", "city":"Pisco","lat":"-13.7449","lng":"-76.220299","name":"Captain Renán Elías Olivera International Airport"}, 
{ "code":"PTX", "city":"Pitalito","lat":"1.85777","lng":"-76.0857","name":"Pitalito Airport"}, 
{ "code":"PIU", "city":"Piura","lat":"-5.20574998856","lng":"-80.6164016724","name":"Capitán FAP Guillermo Concha Iberico International Airport"}, 
{ "code":"PLA", "city":"Planadas","lat":"3.197051","lng":"-75.642042","name":"Planadas Airport"}, 
{ "code":"PLT", "city":"Plato","lat":"9.8","lng":"-74.7833","name":"Plato Airport"}, 
{ "code":"SQU", "city":"Plaza Saposoa","lat":"-6.96003","lng":"-76.768402","name":"Saposoa Airport"}, 
{ "code":"POO", "city":"Poços De Caldas","lat":"-21.842529","lng":"-46.569768","name":"Poços de Caldas - Embaixador Walther Moreira Salles Airport"}, 
{ "code":"PGZ", "city":"Ponta Grossa","lat":"-25.184476","lng":"-50.143822","name":"Ponta Grossa Airport - Comandante Antonio Amilton Beraldo"}, 
{ "code":"PMG", "city":"Ponta Porã","lat":"-22.549601","lng":"-55.702599","name":"Ponta Porã Airport"}, 
{ "code":"LCB", "city":"Pontes e Lacerda","lat":"-15.1934","lng":"-59.3848","name":"André Antônio Maggi Airport"}, 
{ "code":"PPN", "city":"Popayán","lat":"2.4544","lng":"-76.6093","name":"Guillermo León Valencia Airport"}, 
{ "code":"PRE", "city":"Pore","lat":"5.733333","lng":"-71.983333","name":"Pore Airport"}, 
{ "code":"PKM", "city":"Port Kaituma","lat":"7.7424","lng":"-59.8819","name":"Port Kaituma Airport"}, 
{ "code":"POA", "city":"Porto Alegre","lat":"-29.994712","lng":"-51.166592","name":"Salgado Filho International Airport"}, 
{ "code":"QNS", "city":"Porto Alegre","lat":"-29.945928","lng":"-51.144413","name":"Canoas Air Force Base"}, 
{ "code":"PBX", "city":"Porto Alegre do Norte","lat":"-10.85935","lng":"-51.688152","name":"Fazenda Piraguassu Airport"}, 
{ "code":"PTQ", "city":"Porto De Moz","lat":"-1.74145","lng":"-52.236099","name":"Porto de Moz Airport"}, 
{ "code":"PNB", "city":"Porto Nacional","lat":"-10.719402","lng":"-48.3997","name":"Porto Nacional Airport"}, 
{ "code":"BPS", "city":"Porto Seguro","lat":"-16.438426","lng":"-39.080584","name":"Porto Seguro Airport"}, 
{ "code":"PVH", "city":"Porto Velho","lat":"-8.707854","lng":"-63.90242","name":"Governador Jorge Teixeira de Oliveira Airport"}, 
{ "code":"PVO", "city":"Portoviejo","lat":"-1.04165","lng":"-80.472198","name":"Reales Tamarindos Airport"}, 
{ "code":"WPR", "city":"Porvenir","lat":"-53.2537","lng":"-70.319199","name":"Captain Fuentes Martinez Airport"}, 
{ "code":"PSS", "city":"Posadas","lat":"-27.3858","lng":"-55.9707","name":"Libertador Gral D Jose De San Martin Airport"}, 
{ "code":"POI", "city":"Potosí","lat":"-19.543331","lng":"-65.723734","name":"Capitan Nicolas Rojas Airport"}, 
{ "code":"PPY", "city":"Pouso Alegre","lat":"-22.2892","lng":"-45.919102","name":"Pouso Alegre Airport"}, 
{ "code":"PDF", "city":"Prado","lat":"-17.296976","lng":"-39.271131","name":"Prado Airport"}, 
{ "code":"PRQ", "city":"Presidencia Roque Sáenz Peña","lat":"-26.753611","lng":"-60.492222","name":"Termal Airport"}, 
{ "code":"PDR", "city":"Presidente Dutra","lat":"-5.3098","lng":"-44.481","name":"Presidente José Sarney Airport"}, 
{ "code":"PPB", "city":"Presidente Prudente","lat":"-22.1751","lng":"-51.424599","name":"Presidente Prudente Airport"}, 
{ "code":"PVA", "city":"Providencia","lat":"13.357461","lng":"-81.357977","name":"El Embrujo Airport"}, 
{ "code":"PCL", "city":"Pucallpa","lat":"-8.37794017791748","lng":"-74.5743026733398","name":"Cap FAP David Abenzur Rengifo International Airport"}, 
{ "code":"ZPC", "city":"Pucon","lat":"-39.292801","lng":"-71.915901","name":"Pucón Airport"}, 
{ "code":"PUU", "city":"Puerto Asís","lat":"0.505228","lng":"-76.5008","name":"Tres De Mayo Airport"}, 
{ "code":"PYH", "city":"Puerto Ayacucho","lat":"5.61999","lng":"-67.606102","name":"Cacique Aramare Airport"}, 
{ "code":"WPA", "city":"Puerto Aysén","lat":"-45.3992","lng":"-72.670303","name":"Cabo Juan Román Airfield"}, 
{ "code":"SCY", "city":"Puerto Baquerizo Moreno","lat":"-0.910206","lng":"-89.617401","name":"San Cristóbal Airport"}, 
{ "code":"PBE", "city":"Puerto Berrio","lat":"6.46034","lng":"-74.4105","name":"Puerto Berrio Airport"}, 
{ "code":"PYA", "city":"Puerto Boyacá","lat":"5.93904","lng":"-74.457","name":"Velásquez Airport"}, 
{ "code":"PBL", "city":"Puerto Cabello","lat":"10.4805","lng":"-68.072998","name":"General Bartolome Salom International Airport"}, 
{ "code":"PCR", "city":"Puerto Carreño","lat":"6.18472","lng":"-67.4932","name":"German Olano Airport"}, 
{ "code":"GMC", "city":"Puerto Carreño","lat":"3.629996","lng":"-70.323028","name":"Guerima Airport"}, 
{ "code":"PUD", "city":"Puerto Deseado","lat":"-47.7353","lng":"-65.9041","name":"Puerto Deseado Airport"}, 
{ "code":"MSK", "city":"Puerto Gaitán","lat":"3.750453","lng":"-71.456137","name":"Morelia Airport"}, 
{ "code":"IGR", "city":"Puerto Iguazu","lat":"-25.737301","lng":"-54.4734","name":"Cataratas Del Iguazú International Airport"}, 
{ "code":"PDA", "city":"Puerto Inírida","lat":"3.85353","lng":"-67.9062","name":"Obando Cesar Gaviria Trujillo Airport"}, 
{ "code":"PCJ", "city":"Puerto La Victoria","lat":"-22.289298","lng":"-57.860484","name":"Aeródromo de Puerto La Victoria"}, 
{ "code":"PBT", "city":"Puerto Leda","lat":"-20.9046","lng":"-57.927101","name":"Aeródromo de Puerto Leda"}, 
{ "code":"LQM", "city":"Puerto Leguízamo","lat":"-0.182278","lng":"-74.7708","name":"Caucaya Airport"}, 
{ "code":"CCO", "city":"Puerto López","lat":"4.56417","lng":"-71.3364","name":"Carimagua Airport"}, 
{ "code":"PMY", "city":"Puerto Madryn","lat":"-42.7592","lng":"-65.1027","name":"El Tehuelche Airport"}, 
{ "code":"PEM", "city":"Puerto Maldonado","lat":"-12.6135997772","lng":"-69.2285995483","name":"Padre Aldamiz International Airport"}, 
{ "code":"PMC", "city":"Puerto Montt","lat":"-41.4388999938965","lng":"-73.0940017700195","name":"El Tepual Airport"}, 
{ "code":"GRA", "city":"Puerto Mosquito","lat":"8.20199","lng":"-73.7653","name":"Gamarra Airport"}, 
{ "code":"PNT", "city":"Puerto Natales","lat":"-51.67067","lng":"-72.529078","name":"Lieutenant Julio Gallardo Airport"}, 
{ "code":"PZO", "city":"Puerto Ordaz-Ciudad Guayana","lat":"8.28853","lng":"-62.760399","name":"General Manuel Carlos Piar International Airport"}, 
{ "code":"PPZ", "city":"Puerto Paez","lat":"6.220095","lng":"-67.447508","name":"Puerto Paez Airport"}, 
{ "code":"PYO", "city":"Puerto Putumayo","lat":"0.115949","lng":"-75.85022","name":"Putumayo Airport"}, 
{ "code":"PCC", "city":"Puerto Rico","lat":"1.916667","lng":"-75.166667","name":"Puerto Rico Airport"}, 
{ "code":"PUR", "city":"Puerto Rico/Manuripi","lat":"-11.107663","lng":"-67.551155","name":"Puerto Rico Airport"}, 
{ "code":"RZA", "city":"Puerto Santa Cruz","lat":"-50.0165","lng":"-68.5792","name":"Santa Cruz Airport"}, 
{ "code":"PSZ", "city":"Puerto Suárez","lat":"-18.975301","lng":"-57.820599","name":"Capitán Av. Salvador Ogaya G. airport"}, 
{ "code":"VMI", "city":"Puerto Vallemi","lat":"-22.159371","lng":"-57.942395","name":"Aeropuerto Nacional Doctor Juan Plate"}, 
{ "code":"PUX", "city":"Puerto Varas","lat":"-41.3494","lng":"-72.946701","name":"El Mirador Airport"}, 
{ "code":"IBB", "city":"Puerto Villamil","lat":"-0.942628","lng":"-90.953003","name":"General Villamil Airport"}, 
{ "code":"WPU", "city":"Puerto Williams","lat":"-54.931099","lng":"-67.626297","name":"Guardia Marina Zañartu Airport"}, 
{ "code":"PUQ", "city":"Punta Arenas","lat":"-53.002602","lng":"-70.854599","name":"President Carlos Ibañez del Campo International Airport"}, 
{ "code":"PDP", "city":"Punta del Este","lat":"-34.855099","lng":"-55.094299","name":"Capitan Corbeta CA Curbelo International Airport"}, 
{ "code":"UIB", "city":"Quibdó","lat":"5.69076","lng":"-76.6412","name":"El Caraño Airport"}, 
{ "code":"UYU", "city":"Quijarro","lat":"-20.441304","lng":"-66.857553","name":"Uyuni Joya Andina Airport"}, 
{ "code":"UMI", "city":"Quince Mil","lat":"-13.231357","lng":"-70.75145","name":"Quincemil Air Base"}, 
{ "code":"UIO", "city":"Quito","lat":"-0.125399","lng":"-78.354306","name":"Mariscal Sucre International Airport"}, 
{ "code":"RAF", "city":"Rafaela","lat":"-31.2825","lng":"-61.5017","name":"Rafaela Airport"}, 
{ "code":"REL", "city":"Rawson","lat":"-43.2105","lng":"-65.2703","name":"Almirante Marco Andres Zar Airport"}, 
{ "code":"REC", "city":"Recife","lat":"-8.125984","lng":"-34.923316","name":"Recife/Guararapes - Gilberto Freyre International Airport"}, 
{ "code":"RCQ", "city":"Reconquista","lat":"-29.210278","lng":"-59.683333","name":"Reconquista Airport"}, 
{ "code":"RDC", "city":"Redenção","lat":"-8.03329","lng":"-49.9799","name":"Redenção Airport"}, 
{ "code":"OTU", "city":"Remedios","lat":"7.010532","lng":"-74.715398","name":"Otu Airport"}, 
{ "code":"REZ", "city":"Resende","lat":"-22.4785","lng":"-44.480301","name":"Resende Airport"}, 
{ "code":"RES", "city":"Resistencia","lat":"-27.45","lng":"-59.0561","name":"Resistencia International Airport"}, 
{ "code":"REY", "city":"Reyes","lat":"-14.3044","lng":"-67.353401","name":"Reyes Airport"}, 
{ "code":"RAO", "city":"Ribeirão Preto","lat":"-21.134314","lng":"-47.774053","name":"Leite Lopes Airport"}, 
{ "code":"RIB", "city":"Riberalta","lat":"-11.009355","lng":"-66.075468","name":"Capitán Av. Selin Zeitun Lopez Airport"}, 
{ "code":"RDS", "city":"Rincon de los Sauces","lat":"-37.390598","lng":"-68.904198","name":"Rincon De Los Sauces Airport"}, 
{ "code":"RBR", "city":"Rio Branco","lat":"-9.869031","lng":"-67.893984","name":"Rio Branco-Plácido de Castro International Airport"}, 
{ "code":"RCU", "city":"Rio Cuarto","lat":"-33.085098","lng":"-64.261299","name":"Area De Material Airport"}, 
{ "code":"GIG", "city":"Rio De Janeiro","lat":"-22.809999","lng":"-43.250557","name":"Rio Galeão – Tom Jobim International Airport"}, 
{ "code":"SDU", "city":"Rio de Janeiro","lat":"-22.9105","lng":"-43.163101","name":"Santos Dumont Airport"}, 
{ "code":"SNZ", "city":"Rio de Janeiro","lat":"-22.9324","lng":"-43.719101","name":"Santa Cruz Air Force Base"}, 
{ "code":"RRJ", "city":"Rio De Janeiro","lat":"-22.986773","lng":"-43.372194","name":"Jacarepaguá - Roberto Marinho Airport"}, 
{ "code":"RGL", "city":"Rio Gallegos","lat":"-51.6089","lng":"-69.3126","name":"Piloto Civil N. Fernández Airport"}, 
{ "code":"RGA", "city":"Rio Grande","lat":"-53.7777","lng":"-67.7494","name":"Gobernador Ramón Trejo Noel International Airport"}, 
{ "code":"RIG", "city":"Rio Grande","lat":"-32.083065","lng":"-52.167184","name":"Rio Grande Regional Airport"}, 
{ "code":"ROY", "city":"Rio Mayo","lat":"-45.703899","lng":"-70.245598","name":"Rio Mayo Airport"}, 
{ "code":"RYO", "city":"Rio Turbio","lat":"-51.605","lng":"-72.2203","name":"28 de Noviembre Airport"}, 
{ "code":"RVD", "city":"Rio Verde","lat":"-17.834723","lng":"-50.956112","name":"General Leite de Castro Airport"}, 
{ "code":"RCH", "city":"Riohacha","lat":"11.5262","lng":"-72.926","name":"Almirante Padilla Airport"}, 
{ "code":"RIJ", "city":"Rioja","lat":"-6.06786","lng":"-77.160004","name":"Juan Simons Vela Airport"}, 
{ "code":"RVY", "city":"Rivera","lat":"-30.9746","lng":"-55.4762","name":"Presidente General Don Oscar D. Gestido International Airport"}, 
{ "code":"RBO", "city":"Roboré","lat":"-18.328224","lng":"-59.765339","name":"Roboré Airport"}, 
{ "code":"RIM", "city":"Rodriguez de Mendoza","lat":"-6.39231","lng":"-77.501198","name":"San Nicolas Airport"}, 
{ "code":"ROO", "city":"Rondonópolis","lat":"-16.584292","lng":"-54.724803","name":"Maestro Marinho Franco Airport"}, 
{ "code":"ROS", "city":"Rosario","lat":"-32.9036","lng":"-60.785","name":"Rosario Islas Malvinas International Airport"}, 
{ "code":"ELJ", "city":"Ruperto Polania","lat":"2","lng":"-74.133333","name":"El Recreo Airport"}, 
{ "code":"RBQ", "city":"Rurrenabaque","lat":"-14.4279","lng":"-67.496803","name":"Rurrenabaque Airport"}, 
{ "code":"SNT", "city":"Sabana de Torres","lat":"7.38322","lng":"-73.505402","name":"Las Cruces Airport"}, 
{ "code":"SNC", "city":"Salinas","lat":"-2.210057","lng":"-80.985067","name":"General Ulpiano Paez Airport"}, 
{ "code":"OPP", "city":"Salinópolis","lat":"-0.696111","lng":"-47.336111","name":"Salinópolis Airport"}, 
{ "code":"SLA", "city":"Salta","lat":"-24.8560009003","lng":"-65.4861984253","name":"Martin Miguel De Guemes International Airport"}, 
{ "code":"STY", "city":"Salto","lat":"-31.438499","lng":"-57.985298","name":"Nueva Hesperides International Airport"}, 
{ "code":"SSA", "city":"Salvador","lat":"-12.908611","lng":"-38.322498","name":"Deputado Luiz Eduardo Magalhães International Airport"}, 
{ "code":"ADZ", "city":"San Andrés","lat":"12.5836","lng":"-81.7112","name":"Gustavo Rojas Pinilla International Airport"}, 
{ "code":"OES", "city":"San Antonio Oeste","lat":"-40.7512","lng":"-65.0343","name":"Antoine de Saint Exupéry Airport"}, 
{ "code":"SRJ", "city":"San Borja","lat":"-14.8592","lng":"-66.737503","name":"Capitán Av. German Quiroga G. Airport"}, 
{ "code":"BRC", "city":"San Carlos de Bariloche","lat":"-41.151199","lng":"-71.157501","name":"San Carlos de Bariloche Airport"}, 
{ "code":"STB", "city":"San Carlos del Zulia","lat":"8.97455","lng":"-71.943253","name":"Miguel Urdaneta Fernández Airport"}, 
{ "code":"SCI", "city":"San Cristóbal","lat":"7.80132","lng":"-72.202904","name":"Paramillo Airport"}, 
{ "code":"SSD", "city":"San Felipe","lat":"-32.7458","lng":"-70.705002","name":"Víctor Lafón Airport"}, 
{ "code":"SNF", "city":"San Felipe","lat":"10.2787","lng":"-68.755203","name":"Sub Teniente Nestor Arias Airport"}, 
{ "code":"SFD", "city":"San Fernando de Apure","lat":"7.88332","lng":"-67.444","name":"San Fernando de Apure Las Flecheras National Airport"}, 
{ "code":"SNM", "city":"San Ignacio de Moxos","lat":"-14.9658","lng":"-65.6338","name":"San Ignacio de Moxos Airport"}, 
{ "code":"SNG", "city":"San Ignacio de Velasco","lat":"-16.38719","lng":"-60.962318","name":"Capitán Av. Juan Cochamanidis S. Airport"}, 
{ "code":"SJV", "city":"San Javier","lat":"-16.2708","lng":"-62.470299","name":"San Javier Airport"}, 
{ "code":"SJB", "city":"San Joaquín","lat":"-13.0528","lng":"-64.661697","name":"San Joaquín Airport"}, 
{ "code":"SJS", "city":"San José de Chiquitos","lat":"-17.830799","lng":"-60.743099","name":"San José De Chiquitos Airport"}, 
{ "code":"SJE", "city":"San José Del Guaviare","lat":"2.57969","lng":"-72.6394","name":"Jorge E. Gonzalez Torres Airport"}, 
{ "code":"UAQ", "city":"San Juan","lat":"-31.571501","lng":"-68.418198","name":"Domingo Faustino Sarmiento Airport"}, 
{ "code":"SJA", "city":"San Juan de Marcona","lat":"-15.357508","lng":"-75.135005","name":"San Juan de Marcona Airport"}, 
{ "code":"SJR", "city":"San Juan De Uraba","lat":"8.766667","lng":"-76.533333","name":"San Juan De Uraba Airport"}, 
{ "code":"SJH", "city":"San Juan Del César","lat":"10.766667","lng":"-73.016667","name":"San Juan Del César Airport"}, 
{ "code":"ULA", "city":"San Julian","lat":"-49.306816","lng":"-67.802596","name":"Capitan D Daniel Vazquez Airport"}, 
{ "code":"LUQ", "city":"San Luis","lat":"-33.273201","lng":"-66.3564","name":"Brigadier Mayor D Cesar Raul Ojeda Airport"}, 
{ "code":"SQE", "city":"San Luis De Palenque","lat":"5.400181","lng":"-71.7001","name":"San Luis De Palenque Airport"}, 
{ "code":"SRS", "city":"San Marcos","lat":"8.69","lng":"-75.156","name":"San Marcos Airport"}, 
{ "code":"MQK", "city":"San Matías","lat":"-16.339199","lng":"-58.401901","name":"San Matías Airport"}, 
{ "code":"TUC", "city":"San Miguel de Tucumán","lat":"-26.8409","lng":"-65.104897","name":"Teniente Benjamin Matienzo Airport"}, 
{ "code":"NPU", "city":"San Pedro de Urabá","lat":"8.289325","lng":"-76.375006","name":"San Pedro Airport"}, 
{ "code":"AFA", "city":"San Rafael","lat":"-34.588299","lng":"-68.4039","name":"Suboficial Ay Santiago Germano Airport"}, 
{ "code":"SRD", "city":"San Ramón / Mamoré","lat":"-13.2639","lng":"-64.603897","name":"San Ramón Airport"}, 
{ "code":"JUJ", "city":"San Salvador de Jujuy","lat":"-24.392799","lng":"-65.097801","name":"Gobernador Horacio Guzman International Airport"}, 
{ "code":"SVV", "city":"San Salvador de Paul","lat":"7","lng":"-62","name":"San Salvador de Paul Airport"}, 
{ "code":"SVI", "city":"San Vicente Del Caguán","lat":"2.15217","lng":"-74.7663","name":"Eduardo Falla Solano Airport"}, 
{ "code":"AYG", "city":"San Vicente Del Caguán","lat":"1.54417","lng":"-73.9333","name":"Yaguara Airport"}, 
{ "code":"SDC", "city":"Sand Creek","lat":"2.9913","lng":"-59.51","name":"Sand Creek Airport"}, 
{ "code":"SBL", "city":"Santa Ana del Yacuma","lat":"-13.7622003555","lng":"-65.4352035522","name":"Santa Ana Del Yacuma Airport"}, 
{ "code":"SBB", "city":"Santa Bárbara","lat":"7.803514","lng":"-71.165718","name":"Santa Bárbara de Barinas Airport"}, 
{ "code":"SCA", "city":"Santa Catalina","lat":"8.5","lng":"-76.175","name":"Santa Catalina Airport"}, 
{ "code":"VVI", "city":"Santa Cruz","lat":"-17.6448","lng":"-63.135399","name":"Viru Viru International Airport"}, 
{ "code":"SRZ", "city":"Santa Cruz","lat":"-17.8115997314","lng":"-63.1715011597","name":"El Trompillo Airport"}, 
{ "code":"MMP", "city":"Santa Cruz de Mompóx","lat":"9.258348","lng":"-74.438393","name":"San Bernardo Airport"}, 
{ "code":"CSU", "city":"Santa Cruz do Sul","lat":"-29.684099","lng":"-52.412201","name":"Santa Cruz do Sul Airport"}, 
{ "code":"SNV", "city":"Santa Elena de Uairén","lat":"4.554699","lng":"-61.145234","name":"Santa Elena de Uairen Airport"}, 
{ "code":"SFN", "city":"Santa Fe","lat":"-31.7117","lng":"-60.8117","name":"Sauce Viejo Airport"}, 
{ "code":"SFV", "city":"Santa Fé Do Sul","lat":"-20.227777","lng":"-50.968334","name":"Fazenda Trêz Irmãos Airport"}, 
{ "code":"IRZ", "city":"Santa Isabel Do Rio Negro","lat":"-0.3786","lng":"-64.9923","name":"Tapuruquara Airport"}, 
{ "code":"RIA", "city":"Santa Maria","lat":"-29.711399","lng":"-53.688202","name":"Santa Maria Airport"}, 
{ "code":"SMR", "city":"Santa Marta","lat":"11.1196","lng":"-74.2306","name":"Simón Bolívar International Airport"}, 
{ "code":"RSA", "city":"Santa Rosa","lat":"-36.588299","lng":"-64.275703","name":"Santa Rosa Airport"}, 
{ "code":"SRB", "city":"Santa Rosa","lat":"-14.0662","lng":"-66.786797","name":"Santa Rosa De Yacuma Airport"}, 
{ "code":"SRA", "city":"Santa Rosa","lat":"-27.90658","lng":"-54.520628","name":"Luis Alberto Lehr Airport"}, 
{ "code":"ETR", "city":"Santa Rosa","lat":"-3.441986","lng":"-79.996957","name":"Santa Rosa - Artillery Colonel Victor Larrea International Airport"}, 
{ "code":"SSL", "city":"Santa Rosalia","lat":"5.1309","lng":"-70.8682","name":"Santa Rosalia Airport"}, 
{ "code":"SST", "city":"Santa Teresita","lat":"-36.5423","lng":"-56.7218","name":"Santa Teresita Airport"}, 
{ "code":"STZ", "city":"Santa Terezinha","lat":"-10.464722","lng":"-50.518612","name":"Santa Terezinha Airport"}, 
{ "code":"CTQ", "city":"Santa Vitória do Palmar","lat":"-33.502038","lng":"-53.344911","name":"Santa Vitória do Palmar Airport"}, 
{ "code":"CMP", "city":"Santana do Araguaia","lat":"-9.319906","lng":"-50.328536","name":"Santana do Araguaia Airport"}, 
{ "code":"SRO", "city":"Santana Ramos","lat":"2.216667","lng":"-75.25","name":"Santana Ramos Airport"}, 
{ "code":"STM", "city":"Santarém","lat":"-2.422423","lng":"-54.79306","name":"Santarém - Maestro Wilson Fonseca International Airport"}, 
{ "code":"SCL", "city":"Santiago","lat":"-33.3930015563965","lng":"-70.7857971191406","name":"Comodoro Arturo Merino Benítez International Airport"}, 
{ "code":"MZD", "city":"Santiago de Méndez","lat":"-2.7333300113678","lng":"-78.3167037963867","name":"Méndez Airport"}, 
{ "code":"TLU", "city":"Santiago de Tolú","lat":"9.50945","lng":"-75.5854","name":"Golfo de Morrosquillo Airport"}, 
{ "code":"SDE", "city":"Santiago del Estero","lat":"-27.7655563354","lng":"-64.3099975586","name":"Vicecomodoro Angel D. La Paz Aragonés Airport"}, 
{ "code":"GEL", "city":"Santo Ângelo","lat":"-28.282503","lng":"-54.169623","name":"Santo Ângelo Airport"}, 
{ "code":"IPG", "city":"Santo Antônio do Içá","lat":"-2.940141","lng":"-69.694264","name":"Ipiranga Airport"}, 
{ "code":"STD", "city":"Santo Domingo","lat":"7.56538","lng":"-72.035103","name":"Mayor Buenaventura Vivas International Airport"}, 
{ "code":"JSB", "city":"São Benedito","lat":"-4.042841","lng":"-40.893813","name":"Walfrido Salmito de Almeida Airport"}, 
{ "code":"JBS", "city":"São Borja","lat":"-28.6549","lng":"-56.034599","name":"São Borja Airport"}, 
{ "code":"QSC", "city":"São Carlos","lat":"-21.875032","lng":"-47.903851","name":"Mário Pereira Lopes–São Carlos International Airport"}, 
{ "code":"SXO", "city":"São Félix Do Araguaia","lat":"-11.6324","lng":"-50.689602","name":"São Félix do Araguaia Airport"}, 
{ "code":"SXX", "city":"São Félix do Xingu","lat":"-6.6413","lng":"-51.9523","name":"São Félix do Xingu Airport"}, 
{ "code":"SJL", "city":"São Gabriel da Cachoeira","lat":"-0.14835","lng":"-66.9855","name":"São Gabriel da Cachoeira Airport"}, 
{ "code":"JDR", "city":"São João Del Rei","lat":"-21.085638","lng":"-44.225299","name":"Prefeito Octávio de Almeida Neves Airport"}, 
{ "code":"SJP", "city":"São José do Rio Preto","lat":"-20.817113","lng":"-49.406963","name":"Prof. Eribelto Manoel Reino State Airport"}, 
{ "code":"SJK", "city":"São José Dos Campos","lat":"-23.2292","lng":"-45.8615","name":"Professor Urbano Ernesto Stumpf Airport"}, 
{ "code":"SSO", "city":"São Lourenço","lat":"-22.0909","lng":"-45.044498","name":"São Lourenço Airport"}, 
{ "code":"SQY", "city":"São Lourenço Do Sul","lat":"-31.38330078125","lng":"-52.0327987670898","name":"São Lourenço do Sul Airport"}, 
{ "code":"SLZ", "city":"São Luís","lat":"-2.58536","lng":"-44.2341","name":"Marechal Cunha Machado International Airport"}, 
{ "code":"SBJ", "city":"São Mateus","lat":"-18.7213","lng":"-39.833698","name":"São Mateus - Ernesto Bonomo Airport"}, 
{ "code":"SQM", "city":"São Miguel Do Araguaia","lat":"-13.3312997817993","lng":"-50.1976013183594","name":"São Miguel do Araguaia Airport"}, 
{ "code":"SQX", "city":"São Miguel do Oeste","lat":"-26.781601","lng":"-53.503502","name":"São Miguel do Oeste Hélio Wasum Airport"}, 
{ "code":"GRU", "city":"São Paulo","lat":"-23.431944","lng":"-46.467778","name":"Guarulhos - Governador André Franco Montoro International Airport"}, 
{ "code":"CGH", "city":"São Paulo","lat":"-23.627657","lng":"-46.654601","name":"Congonhas Airport"}, 
{ "code":"RTE", "city":"São Paulo","lat":"-23.5091","lng":"-46.637798","name":"Campo de Marte Airport"}, 
{ "code":"OLC", "city":"São Paulo De Olivença","lat":"-3.46907","lng":"-68.921056","name":"Senadora Eunice Micheles Airport"}, 
{ "code":"NSR", "city":"São Raimundo Nonato","lat":"-9.083392","lng":"-42.644656","name":"Serra da Capivara Airport"}, 
{ "code":"JHF", "city":"São Roque","lat":"-23.426886","lng":"-47.165658","name":"São Paulo Catarina Executive Airport"}, 
{ "code":"AZL", "city":"Sapezal","lat":"-13.465528","lng":"-58.866935","name":"Fazenda Tucunaré Airport"}, 
{ "code":"RVE", "city":"Saravena","lat":"6.951868","lng":"-71.857179","name":"Los Colonizadores Airport"}, 
{ "code":"OLN", "city":"Sarmiento","lat":"-45.5752","lng":"-69.077","name":"Lago Musters Airport"}, 
{ "code":"ZMD", "city":"Sena Madureira","lat":"-9.116","lng":"-68.6108","name":"Sena Madureira Airport"}, 
{ "code":"SET", "city":"Serra Talhada","lat":"-8.061433","lng":"-38.328888","name":"Santa Magalhães Airport"}, 
{ "code":"PTZ", "city":"Shell Mera","lat":"-1.50524","lng":"-78.062698","name":"Rio Amazonas Airport"}, 
{ "code":"SYC", "city":"Shiringayoc","lat":"-11.898","lng":"-69.0625","name":"Shiringayoc Airport"}, 
{ "code":"SGV", "city":"Sierra Grande","lat":"-41.591702","lng":"-65.339401","name":"Sierra Grande Airport"}, 
{ "code":"OPS", "city":"Sinop","lat":"-11.885001","lng":"-55.586109","name":"Presidente João Batista Figueiredo Airport"}, 
{ "code":"SKM", "city":"Skeldon","lat":"5.8599","lng":"-57.14894","name":"Skeldon Airport"}, 
{ "code":"JSO", "city":"Sobral","lat":"-3.614488","lng":"-40.231426","name":"Dr. Luciano de Arruda Coelho Regional Airport"}, 
{ "code":"SOX", "city":"Sogamoso","lat":"5.67732","lng":"-72.9703","name":"Alberto Lleras Camargo Airport"}, 
{ "code":"SQF", "city":"Solano","lat":"0.702022","lng":"-75.2505","name":"Solano Airport"}, 
{ "code":"SOH", "city":"Solita","lat":"3.016667","lng":"-71.75","name":"Solita Airport"}, 
{ "code":"SOD", "city":"Sorocaba","lat":"-23.478001","lng":"-47.490002","name":"Sorocaba Airport"}, 
{ "code":"SMT", "city":"Sorriso","lat":"-12.479177","lng":"-55.672341","name":"Adolino Bedin Regional Airport"}, 
{ "code":"SFK", "city":"Soure","lat":"-0.697844","lng":"-48.519759","name":"Soure Airport"}, 
{ "code":"PSY", "city":"Stanley","lat":"-51.685699462891","lng":"-57.777599334717","name":"Port Stanley Airport"}, 
{ "code":"SMZ", "city":"Stoelmanseiland","lat":"4.351389","lng":"-54.418056","name":"Stoelmanseiland Airport"}, 
{ "code":"SUQ", "city":"Sucúa","lat":"-2.474201","lng":"-78.169041","name":"Sucúa Airport"}, 
{ "code":"NCJ", "city":"Sunchales","lat":"-30.9575","lng":"-61.5283","name":"Sunchales Aeroclub Airport"}, 
{ "code":"TBT", "city":"Tabatinga","lat":"-4.25567","lng":"-69.935799","name":"Tabatinga Airport"}, 
{ "code":"TTM", "city":"Tablón De Tamara","lat":"5.726667","lng":"-72.100556","name":"Tablón De Tamara Airport"}, 
{ "code":"ESM", "city":"Tachina","lat":"0.978519","lng":"-79.626602","name":"Carlos Concha Torres International Airport"}, 
{ "code":"TCQ", "city":"Tacna","lat":"-18.0533008575","lng":"-70.2758026123","name":"Coronel FAP Carlos Ciriani Santa Rosa International Airport"}, 
{ "code":"TAW", "city":"Tacuarembo","lat":"-31.749001","lng":"-55.925801","name":"Tacuarembo Airport"}, 
{ "code":"QHN", "city":"Taguatinga","lat":"-12.4338893890381","lng":"-46.4005546569824","name":"Taguatinga Airport"}, 
{ "code":"TSC", "city":"Taisha","lat":"-2.38167","lng":"-77.5028","name":"Taisha Airport"}, 
{ "code":"TYL", "city":"Talara","lat":"-4.57664","lng":"-81.254097","name":"Captain Victor Montes Arias International Airport"}, 
{ "code":"TLX", "city":"Talca","lat":"-35.3778","lng":"-71.6017","name":"Panguilemo Airport"}, 
{ "code":"TTC", "city":"Taltal","lat":"-25.564301","lng":"-70.3759","name":"Las Breas Airport"}, 
{ "code":"TME", "city":"Tame","lat":"6.45108","lng":"-71.7603","name":"Gustavo Vargas Airport"}, 
{ "code":"TDL", "city":"Tandil","lat":"-37.234634","lng":"-59.228647","name":"Héroes de Malvinas Airport"}, 
{ "code":"TGQ", "city":"Tangará da Serra","lat":"-14.662","lng":"-57.443744","name":"Tangará da Serra Airport"}, 
{ "code":"TCD", "city":"Tarapacá","lat":"-2.895802","lng":"-69.749762","name":"Tarapacá Airport"}, 
{ "code":"TPC", "city":"Tarapoa","lat":"-0.122956","lng":"-76.337799","name":"Tarapoa Airport"}, 
{ "code":"TPP", "city":"Tarapoto","lat":"-6.50873994827271","lng":"-76.3731994628906","name":"Cadete FAP Guillermo Del Castillo Paredes Airport"}, 
{ "code":"TRQ", "city":"Tarauacá","lat":"-8.155534","lng":"-70.782985","name":"Tarauacá Airport"}, 
{ "code":"TJA", "city":"Tarija","lat":"-21.5557","lng":"-64.701302","name":"Capitan Oriel Lea Plaza Airport"}, 
{ "code":"TTG", "city":"Tartagal","lat":"-22.616877","lng":"-63.793015","name":"General Enrique Mosconi Airport"}, 
{ "code":"JTA", "city":"Tauá","lat":"-5.9334","lng":"-40.2975","name":"Pedro Teixeira Castelo Airport"}, 
{ "code":"TAU", "city":"Tauramena","lat":"5.01281","lng":"-72.7424","name":"Tauramena Airport"}, 
{ "code":"TFF", "city":"Tefé","lat":"-3.38294","lng":"-64.724098","name":"Tefé Airport"}, 
{ "code":"TXF", "city":"Teixeira de Freitas","lat":"-17.524392","lng":"-39.668499","name":"9 de Maio - Teixeira de Freitas Airport"}, 
{ "code":"TEC", "city":"Telêmaco Borba","lat":"-24.317801","lng":"-50.6516","name":"Telêmaco Borba Airport"}, 
{ "code":"PZS", "city":"Temuco","lat":"-38.766799926758","lng":"-72.637100219727","name":"Maquehue Airport"}, 
{ "code":"ZCO", "city":"Temuco","lat":"-38.9259","lng":"-72.6515","name":"La Araucanía Airport"}, 
{ "code":"TFL", "city":"Teófilo Otoni","lat":"-17.8923","lng":"-41.513599","name":"Juscelino Kubitscheck Airport"}, 
{ "code":"THE", "city":"Teresina","lat":"-5.06025","lng":"-42.823712","name":"Senador Petrônio Portela Airport"}, 
{ "code":"RHD", "city":"Termas de Río Hondo","lat":"-27.4966","lng":"-64.93595","name":"Termas de Río Hondo international Airport"}, 
{ "code":"TIB", "city":"Tibú","lat":"8.63152","lng":"-72.7304","name":"Tibú Airport"}, 
{ "code":"TBD", "city":"Timbiqui","lat":"2.778569","lng":"-77.668045","name":"Timbiqui Airport"}, 
{ "code":"TGI", "city":"Tingo Maria","lat":"-9.289667","lng":"-76.005058","name":"Tingo Maria Airport"}, 
{ "code":"TPN", "city":"Tiputini","lat":"-0.776111","lng":"-75.526398","name":"Tiputini Airport"}, 
{ "code":"TOQ", "city":"Tocopilla","lat":"-22.1411","lng":"-70.062897","name":"Barriles Airport"}, 
{ "code":"TOW", "city":"Toledo","lat":"-24.6863","lng":"-53.697498","name":"Toledo - Luiz Dalcanale Filho Municipal Airport"}, 
{ "code":"TSQ", "city":"Torres","lat":"-29.4149","lng":"-49.810001","name":"Torres Airport"}, 
{ "code":"TOT", "city":"Totness","lat":"5.86583","lng":"-56.327499","name":"Totness Airport"}, 
{ "code":"TYT", "city":"Treinta y Tres","lat":"-33.195714","lng":"-54.347246","name":"Treinta y Tres Airport"}, 
{ "code":"OYO", "city":"Tres Arroyos","lat":"-38.3869","lng":"-60.3297","name":"Tres Arroyos Airport"}, 
{ "code":"TQS", "city":"Tres Esquinas","lat":"0.7459","lng":"-75.234","name":"Captain Ernesto Esguerra Cubides Air Base"}, 
{ "code":"TJL", "city":"Três Lagoas","lat":"-20.752643","lng":"-51.682026","name":"Plínio Alarcom Airport"}, 
{ "code":"TDD", "city":"Trinidad","lat":"-14.8186998367","lng":"-64.9179992676","name":"Teniente Av. Jorge Henrich Arauz Airport"}, 
{ "code":"TDA", "city":"Trinidad","lat":"5.43278","lng":"-71.6625","name":"Trinidad Airport"}, 
{ "code":"TRU", "city":"Trujillo","lat":"-8.08141040802002","lng":"-79.1088027954102","name":"Capitan FAP Carlos Martinez De Pinillos International Airport"}, 
{ "code":"TUV", "city":"Tucupita","lat":"9.088994","lng":"-62.094173","name":"Tucupita Airport"}, 
{ "code":"TUR", "city":"Tucuruí","lat":"-3.78601","lng":"-49.720299","name":"Tucuruí Airport"}, 
{ "code":"TUA", "city":"Tulcán","lat":"0.809506","lng":"-77.708099","name":"Lieutenant Colonel Luis A. Mantilla International Airport"}, 
{ "code":"ULQ", "city":"Tuluá","lat":"4.08836","lng":"-76.2351","name":"Heriberto Gíl Martínez Airport"}, 
{ "code":"TCO", "city":"Tumaco","lat":"1.81442","lng":"-78.7492","name":"La Florida Airport"}, 
{ "code":"TBP", "city":"Tumbes","lat":"-3.552074","lng":"-80.381086","name":"Captain Pedro Canga Rodríguez International Airport"}, 
{ "code":"UBT", "city":"Ubatuba","lat":"-23.440628","lng":"-45.074057","name":"Ubatuba Gastão Madeira State Airport"}, 
{ "code":"UBA", "city":"Uberaba","lat":"-19.765036","lng":"-47.964805","name":"Mário de Almeida Franco Airport"}, 
{ "code":"UDI", "city":"Uberlândia","lat":"-18.883579","lng":"-48.225936","name":"Ten. Cel. Aviador César Bombonato Airport"}, 
{ "code":"UCZ", "city":"Uchiza","lat":"-8.467","lng":"-76.349998","name":"Uchiza Airport"}, 
{ "code":"UMU", "city":"Umuarama","lat":"-23.7987","lng":"-53.313801","name":"Orlando de Carvalho Airport"}, 
{ "code":"UNA", "city":"Una","lat":"-15.354358","lng":"-38.998729","name":"Una-Comandatuba Airport"}, 
{ "code":"UNC", "city":"Unguía","lat":"8.032714","lng":"-77.091751","name":"Unguía Airport"}, 
{ "code":"UVI", "city":"União da Vitória","lat":"-26.233224","lng":"-51.066754","name":"José Cleto Airport"}, 
{ "code":"WOK", "city":"Uonquén","lat":"4.984002","lng":"-61.730102","name":"Uon Quen Airport"}, 
{ "code":"URM", "city":"Urimán","lat":"5.358118","lng":"-62.671625","name":"Uriman Airport"}, 
{ "code":"URR", "city":"Urrao","lat":"6.32883","lng":"-76.1425","name":"Urrao Airport"}, 
{ "code":"RPU", "city":"Urucu","lat":"-4.884263","lng":"-65.355421","name":"Urucu Airport"}, 
{ "code":"URG", "city":"Uruguaiana","lat":"-29.7822","lng":"-57.0382","name":"Rubem Berta Airport"}, 
{ "code":"USH", "city":"Ushuaia","lat":"-54.8433","lng":"-68.2958","name":"Ushuaia - Malvinas Argentinas International Airport"}, 
{ "code":"VCC", "city":"Vacaria","lat":"-28.43248","lng":"-51.023322","name":"Vacaria Airport"}, 
{ "code":"VCF", "city":"Valcheta","lat":"-40.700001","lng":"-66.150002","name":"Valcheta Airport"}, 
{ "code":"ZAL", "city":"Valdivia","lat":"-39.6500015259","lng":"-73.0860977173","name":"Pichoy Airport"}, 
{ "code":"VAL", "city":"Valença","lat":"-13.2965","lng":"-38.992401","name":"Valença Airport"}, 
{ "code":"VLN", "city":"Valencia","lat":"10.1497325897217","lng":"-67.9283981323242","name":"Arturo Michelena International Airport"}, 
{ "code":"VLV", "city":"Valera","lat":"9.340478","lng":"-70.584061","name":"Dr. Antonio Nicolás Briceño Airport"}, 
{ "code":"VUP", "city":"Valledupar","lat":"10.435","lng":"-73.2495","name":"Alfonso López Pumarejo Airport"}, 
{ "code":"VAH", "city":"Vallegrande","lat":"-18.4825","lng":"-64.099403","name":"Capitán Av. Vidal Villagomez Toledo Airport"}, 
{ "code":"VLR", "city":"Vallenar","lat":"-28.596399","lng":"-70.755997","name":"Vallenar Airport"}, 
{ "code":"VAG", "city":"Varginha","lat":"-21.591375","lng":"-45.474116","name":"Major Brigadeiro Trompowsky Airport"}, 
{ "code":"VCH", "city":"Vichadero","lat":"-31.739166","lng":"-54.587776","name":"Vichadero Airport"}, 
{ "code":"ZIC", "city":"Victoria","lat":"-38.245602","lng":"-72.348602","name":"Victoria Airport"}, 
{ "code":"VIA", "city":"Videira","lat":"-26.999701","lng":"-51.141899","name":"Videira Airport"}, 
{ "code":"VDM", "city":"Viedma / Carmen de Patagones","lat":"-40.8692","lng":"-63.0004","name":"Gobernador Castello Airport"}, 
{ "code":"MTG", "city":"Vila Bela Da Santíssima Trindade","lat":"-14.995499","lng":"-59.945662","name":"Vila Bela da Santíssima Trindade Airport"}, 
{ "code":"VLP", "city":"Vila Rica","lat":"-9.981057","lng":"-51.140358","name":"Vila Rica Airport"}, 
{ "code":"BVH", "city":"Vilhena","lat":"-12.6944","lng":"-60.098301","name":"Brigadeiro Camarão Airport"}, 
{ "code":"VDR", "city":"Villa Dolores","lat":"-31.9452","lng":"-65.146301","name":"Villa Dolores Airport"}, 
{ "code":"VGZ", "city":"Villa Garzón","lat":"0.978767","lng":"-76.6056","name":"Villa Garzón Airport"}, 
{ "code":"VLG", "city":"Villa Gesell","lat":"-37.2354","lng":"-57.0292","name":"Villa Gesell Airport"}, 
{ "code":"VME", "city":"Villa Mercedes","lat":"-33.7299003601","lng":"-65.3873977661","name":"Villa Reynolds Airport"}, 
{ "code":"VLM", "city":"Villamontes","lat":"-21.2551994324","lng":"-63.4056015015","name":"Teniente Coronel Rafael Pabón Airport"}, 
{ "code":"VVC", "city":"Villavicencio","lat":"4.16787","lng":"-73.6138","name":"Vanguardia Airport"}, 
{ "code":"KNA", "city":"Viña del Mar","lat":"-32.9496","lng":"-71.4786","name":"Viña del Mar Airport"}, 
{ "code":"VAP", "city":"Viña Del Mar","lat":"-33.0681","lng":"-71.557503","name":"Rodelillo Airport"}, 
{ "code":"VIX", "city":"Vitória","lat":"-20.258","lng":"-40.285","name":"Eurico de Aguiar Salles Airport"}, 
{ "code":"VDC", "city":"Vitória da Conquista","lat":"-14.907885","lng":"-40.914804","name":"Glauber de Andrade Rocha Airport"}, 
{ "code":"VOT", "city":"Votuporanga","lat":"-20.458426","lng":"-50.003134","name":"Domingos Pignatari Airport"}, 
{ "code":"AGI", "city":"Wageningen","lat":"5.841252","lng":"-56.673247","name":"Wageningen Airstrip"}, 
{ "code":"WSO", "city":"Washabo","lat":"5.215277","lng":"-57.185302","name":"Washabo Airport"}, 
{ "code":"AXE", "city":"Xanxerê","lat":"-26.875067","lng":"-52.372862","name":"Xanxerê Airport"}, 
{ "code":"XIG", "city":"Xinguara","lat":"-7.0906","lng":"-49.9765","name":"Xinguara Municipal Airport"}, 
{ "code":"BYC", "city":"Yacuíba","lat":"-21.9608993530273","lng":"-63.6516990661621","name":"Yacuiba Airport"}, 
{ "code":"SRE", "city":"Yamparaez","lat":"-19.246835","lng":"-65.149611","name":"Alcantarí Airport"}, 
{ "code":"AYI", "city":"Yari","lat":"-0.383333","lng":"-72.266667","name":"Yari Airport"}, 
{ "code":"VAB", "city":"Yavarate","lat":"0.611772","lng":"-69.207369","name":"Yavarate Airport"}, 
{ "code":"EYP", "city":"Yopal","lat":"5.31911","lng":"-72.384","name":"El Alcaravan - Yopal Airport"}, 
{ "code":"YMS", "city":"Yurimaguas","lat":"-5.89377","lng":"-76.118202","name":"Moises Benzaquen Rengifo Airport"}, 
{ "code":"PBM", "city":"Zandery","lat":"5.45283","lng":"-55.187801","name":"Johan Adolf Pengel International Airport"}, 
{ "code":"APZ", "city":"Zapala","lat":"-38.975498","lng":"-70.113602","name":"Zapala Airport"}, 
{ "code":"AZT", "city":"Zapatoca","lat":"6.767724","lng":"-73.284444","name":"Zapatoca Airport"}, 
{ "code":"ZRZ", "city":"Zaraza","lat":"9.350306","lng":"-65.280655","name":"Zaraza Airport"}

]